[
  {
    "id": 9160,
    "CameraLocation": "null|W|47.802634|-122.383115|13|Ferries",
    "CameraOwner": "",
    "Description": "",
    "DisplayLatitude": 47.802634,
    "DisplayLongitude": -122.383115,
    "ImageHeight": 261,
    "url": "https://images.wsdot.wa.gov/wsf/edmonds/104pine.jpg",
    "ImageWidth": 352,
    "IsActive": true,
    "OwnerURL": "",
    "Region": "NW",
    "SortOrder": 5100,
    "Title": "WSF Edmonds Pine"
  },
  {
    "id": 9155,
    "CameraLocation": "null|W|47.810405|-122.383062|13|Ferries",
    "CameraOwner": "",
    "Description": "",
    "DisplayLatitude": 47.810405,
    "DisplayLongitude": -122.383062,
    "ImageHeight": 261,
    "url": "https://images.wsdot.wa.gov/wsf/edmonds/104dayton.jpg",
    "ImageWidth": 352,
    "IsActive": true,
    "OwnerURL": "",
    "Region": "NW",
    "SortOrder": 5100,
    "Title": "WSF Edmonds W Dayton St"
  },
  {
    "id": 9157,
    "CameraLocation": "null|W|47.811747|-122.382174|13|Ferries",
    "CameraOwner": "",
    "Description": "",
    "DisplayLatitude": 47.811747,
    "DisplayLongitude": -122.382174,
    "ImageHeight": 261,
    "url": "https://images.wsdot.wa.gov/wsf/edmonds/holding.jpg",
    "ImageWidth": 352,
    "IsActive": true,
    "OwnerURL": "",
    "Region": "NW",
    "SortOrder": 5100,
    "Title": "WSF Edmonds Holding"
  },
  {
    "id": 9038,
    "CameraLocation": "null|W|47.5232|-122.39359|15|Ferries",
    "CameraOwner": "",
    "Description": "For traffic to Vashon & Southworth.",
    "DisplayLatitude": 47.5232,
    "DisplayLongitude": -122.39359,
    "ImageHeight": 261,
    "url": "https://images.wsdot.wa.gov/wsf/fauntleroy/terminal/fauntleroy.jpg",
    "ImageWidth": 352,
    "IsActive": true,
    "OwnerURL": "",
    "Region": "WA",
    "SortOrder": 5100,
    "Title": "WSF Fauntleroy Ferry Holding"
  },
  {
    "id": 9402,
    "CameraLocation": "null|N|47.52263|-122.392938|15|Ferries",
    "CameraOwner": "",
    "Description": "",
    "DisplayLatitude": 47.52263,
    "DisplayLongitude": -122.392938,
    "ImageHeight": 261,
    "url": "https://images.wsdot.wa.gov/wsf/fauntleroy/terminal/fauntterminal.jpg",
    "ImageWidth": 352,
    "IsActive": true,
    "OwnerURL": "",
    "Region": "WA",
    "SortOrder": 5100,
    "Title": "WSF Fauntleroy Way looking North"
  },
  {
    "id": 9403,
    "CameraLocation": "null|N|47.524794|-122.392652|15|Ferries",
    "CameraOwner": "",
    "Description": "",
    "DisplayLatitude": 47.524794,
    "DisplayLongitude": -122.392652,
    "ImageHeight": 261,
    "url": "https://images.wsdot.wa.gov/wsf/fauntleroy/terminal/faunttrenton.jpg",
    "ImageWidth": 352,
    "IsActive": true,
    "OwnerURL": "",
    "Region": "WA",
    "SortOrder": 5100,
    "Title": "WSF Trenton St looking North"
  },
  {
    "id": 9377,
    "CameraLocation": "null|N|47.526718|-122.392883|15|Ferries",
    "CameraOwner": "City of Seattle",
    "Description": "",
    "DisplayLatitude": 47.526718,
    "DisplayLongitude": -122.392883,
    "ImageHeight": 240,
    "url": "https://www.seattle.gov/trafficcams/images/Fauntleroy_SW_Cloverdale_NS.jpg",
    "ImageWidth": 352,
    "IsActive": true,
    "OwnerURL": "http://web6.seattle.gov/travelers/",
    "Region": "WA",
    "SortOrder": 5100,
    "Title": "WSF Fauntleroy Way and Cloverdale St."
  },
  {
    "id": 9404,
    "CameraLocation": "null|N|47.530459|-122.392633|15|Ferries",
    "CameraOwner": "",
    "Description": "",
    "DisplayLatitude": 47.530459,
    "DisplayLongitude": -122.392633,
    "ImageHeight": 261,
    "url": "https://images.wsdot.wa.gov/wsf/fauntleroy/terminal/fauntlincoln.jpg",
    "ImageWidth": 352,
    "IsActive": true,
    "OwnerURL": "",
    "Region": "WA",
    "SortOrder": 5100,
    "Title": "WSF Lincoln Park looking North"
  },
  {
    "id": 9163,
    "CameraLocation": "null|W|47.928391|-122.300497|17|Ferries",
    "CameraOwner": "",
    "Description": "",
    "DisplayLatitude": 47.928391,
    "DisplayLongitude": -122.300497,
    "ImageHeight": 249,
    "url": "https://images.wsdot.wa.gov/nw/525vc00694.jpg",
    "ImageWidth": 335,
    "IsActive": true,
    "OwnerURL": "",
    "Region": "NW",
    "SortOrder": 5100,
    "Title": "WSF Mukilteo SR 525 at 76th - South"
  },
  {
    "id": 9162,
    "CameraLocation": "null|W|47.928391|-122.300497|17|Ferries",
    "CameraOwner": "",
    "Description": "",
    "DisplayLatitude": 47.928391,
    "DisplayLongitude": -122.300497,
    "ImageHeight": 249,
    "url": "https://images.wsdot.wa.gov/nw/525vc00695.jpg",
    "ImageWidth": 335,
    "IsActive": true,
    "OwnerURL": "",
    "Region": "NW",
    "SortOrder": 5100,
    "Title": "WSF Mukilteo SR 525 at 76th - North"
  },
  {
    "id": 9161,
    "CameraLocation": "null|W|47.933594|-122.306442|17|Ferries",
    "CameraOwner": "",
    "Description": "",
    "DisplayLatitude": 47.933594,
    "DisplayLongitude": -122.306442,
    "ImageHeight": 249,
    "url": "https://images.wsdot.wa.gov/nw/525vc00740.jpg",
    "ImageWidth": 335,
    "IsActive": true,
    "OwnerURL": "",
    "Region": "NW",
    "SortOrder": 5100,
    "Title": "WSF Mukilteo SR 525 at Clover Ln"
  },
  {
    "id": 9728,
    "CameraLocation": "null|S|47.944761|-122.304373|17|Ferries",
    "CameraOwner": "",
    "Description": "",
    "DisplayLatitude": 47.944761,
    "DisplayLongitude": -122.304373,
    "ImageHeight": 249,
    "url": "https://images.wsdot.wa.gov/nw/525vc00819.jpg",
    "ImageWidth": 335,
    "IsActive": true,
    "OwnerURL": "",
    "Region": "NW",
    "SortOrder": 5100,
    "Title": "WSF Mukilteo SR 525 at 5th St - South"
  },
  {
    "id": 9394,
    "CameraLocation": "null|W|47.9448|-122.3043|17|Ferries",
    "CameraOwner": "",
    "Description": "",
    "DisplayLatitude": 47.9448,
    "DisplayLongitude": -122.3043,
    "ImageHeight": 249,
    "url": "https://images.wsdot.wa.gov/nw/525vc00820.jpg",
    "ImageWidth": 335,
    "IsActive": true,
    "OwnerURL": "",
    "Region": "NW",
    "SortOrder": 5100,
    "Title": "WSF Mukilteo SR 525 at 5th St - North"
  },
  {
    "id": 9164,
    "CameraLocation": "null|W|47.948045|-122.30362|17|Ferries",
    "CameraOwner": "",
    "Description": "",
    "DisplayLatitude": 47.948045,
    "DisplayLongitude": -122.30362,
    "ImageHeight": 261,
    "url": "https://images.wsdot.wa.gov/wsf/Mukilteo/Terminal/mukterm.jpg",
    "ImageWidth": 352,
    "IsActive": true,
    "OwnerURL": "",
    "Region": "NW",
    "SortOrder": 5100,
    "Title": "WSF Mukilteo South Holding"
  },
  {
    "id": 9045,
    "CameraLocation": "null|S|47.332941|-122.506968|20|Ferries",
    "CameraOwner": "",
    "Description": "Holding area for traffic to Point Defiance",
    "DisplayLatitude": 47.332941,
    "DisplayLongitude": -122.506968,
    "ImageHeight": 250,
    "url": "https://images.wsdot.wa.gov/wsf/Tahlequah/holding/holding.jpg",
    "ImageWidth": 320,
    "IsActive": true,
    "OwnerURL": "",
    "Region": "NW",
    "SortOrder": 5100,
    "Title": "WSF Tahlequah Ferry Holding"
  },
  {
    "id": 9046,
    "CameraLocation": "null|N|47.333079|-122.506957|20|Ferries",
    "CameraOwner": "",
    "Description": "From Tahlequah ferry terminal looking toward Vashon Hwy SW & SW Pohl Rd",
    "DisplayLatitude": 47.333079,
    "DisplayLongitude": -122.506957,
    "ImageHeight": 250,
    "url": "https://images.wsdot.wa.gov/wsf/Tahlequah/VMSSign/VMSSign.jpg",
    "ImageWidth": 320,
    "IsActive": true,
    "OwnerURL": "",
    "Region": "NW",
    "SortOrder": 5100,
    "Title": "WSF Tahlequah @ SW Tahlequah Rd"
  },
  {
    "id": 9717,
    "CameraLocation": "null|S|47.510459|-122.463852|22|Ferries",
    "CameraOwner": "",
    "Description": "",
    "DisplayLatitude": 47.510459,
    "DisplayLongitude": -122.463852,
    "ImageHeight": 261,
    "url": "https://images.wsdot.wa.gov/wsf/vashon/HoldingSouth.jpg",
    "ImageWidth": 352,
    "IsActive": true,
    "OwnerURL": "",
    "Region": "NW",
    "SortOrder": 5100,
    "Title": "WSF Vashon Ferry Holding (South)"
  },
  {
    "id": 9044,
    "CameraLocation": "null|S|47.505512|-122.461681|22|Ferries",
    "CameraOwner": "",
    "Description": "Vashon Hwy & SW 112th St (Camera Facing South)",
    "DisplayLatitude": 47.505512,
    "DisplayLongitude": -122.461681,
    "ImageHeight": 261,
    "url": "https://images.wsdot.wa.gov/wsf/vashon/VSHvc00003.jpg",
    "ImageWidth": 320,
    "IsActive": true,
    "OwnerURL": "",
    "Region": "NW",
    "SortOrder": 5100,
    "Title": "WSF Vashon Hwy & 112th (South)"
  },
  {
    "id": 9043,
    "CameraLocation": "null|N|47.505682|-122.46173|22|Ferries",
    "CameraOwner": "",
    "Description": "Vashon Hwy & SW 112th St (Camera Facing North)",
    "DisplayLatitude": 47.505682,
    "DisplayLongitude": -122.46173,
    "ImageHeight": 261,
    "url": "https://images.wsdot.wa.gov/wsf/vashon/VSHvc00004.jpg",
    "ImageWidth": 320,
    "IsActive": true,
    "OwnerURL": "",
    "Region": "NW",
    "SortOrder": 5100,
    "Title": "WSF Vashon Hwy & 112th (North)"
  },
  {
    "id": 9042,
    "CameraLocation": "null|S|47.507367|-122.46284|22|Ferries",
    "CameraOwner": "",
    "Description": "Vashon Hwy & SW Bunker Trail (Camera Facing South)",
    "DisplayLatitude": 47.507367,
    "DisplayLongitude": -122.46284,
    "ImageHeight": 261,
    "url": "https://images.wsdot.wa.gov/wsf/vashon/VSHvc00002.jpg",
    "ImageWidth": 320,
    "IsActive": true,
    "OwnerURL": "",
    "Region": "NW",
    "SortOrder": 5100,
    "Title": "WSF Vashon Hwy & Bunker (South)"
  },
  {
    "id": 9041,
    "CameraLocation": "null|N|47.507541|-122.46291|22|Ferries",
    "CameraOwner": "",
    "Description": "Vashon Hwy & SW Bunker Trail (Camera Facing North)",
    "DisplayLatitude": 47.507541,
    "DisplayLongitude": -122.46291,
    "ImageHeight": 261,
    "url": "https://images.wsdot.wa.gov/wsf/vashon/VSHvc00001.jpg",
    "ImageWidth": 320,
    "IsActive": true,
    "OwnerURL": "",
    "Region": "NW",
    "SortOrder": 5100,
    "Title": "WSF Vashon Hwy & Bunker (North)"
  },
  {
    "id": 1361,
    "CameraLocation": "null|B|47.4488|-122.2673|0|I-405",
    "CameraOwner": "",
    "Description": "",
    "DisplayLatitude": 47.4488,
    "DisplayLongitude": -122.2673,
    "ImageHeight": 249,
    "url": "https://images.wsdot.wa.gov/nw/405vc00034.jpg",
    "ImageWidth": 335,
    "IsActive": true,
    "OwnerURL": "",
    "Region": "NW",
    "SortOrder": 1200,
    "Title": "I-405 at MP 0.3: Southcenter"
  },
  {
    "id": 9081,
    "CameraLocation": "null|B|47.461796|-122.254756|0|I-405",
    "CameraOwner": "",
    "Description": "",
    "DisplayLatitude": 47.461796,
    "DisplayLongitude": -122.254756,
    "ImageHeight": 249,
    "url": "https://images.wsdot.wa.gov/nw/405vc00052.jpg",
    "ImageWidth": 335,
    "IsActive": true,
    "OwnerURL": "",
    "Region": "NW",
    "SortOrder": 1200,
    "Title": "I-405 at MP 0.5: Andover Park W"
  },
  {
    "id": 1060,
    "CameraLocation": "null|B|47.463119|-122.24729|0|I-405",
    "CameraOwner": "",
    "Description": "",
    "DisplayLatitude": 47.463119,
    "DisplayLongitude": -122.24729,
    "ImageHeight": 249,
    "url": "https://images.wsdot.wa.gov/nw/405vc00088.jpg",
    "ImageWidth": 335,
    "IsActive": true,
    "OwnerURL": "",
    "Region": "NW",
    "SortOrder": 1200,
    "Title": "I-405 at MP 0.8: West Valley Hwy (SR 181)"
  },
  {
    "id": 1362,
    "CameraLocation": "null|B|47.466253|-122.237465|1|I-405",
    "CameraOwner": "",
    "Description": "",
    "DisplayLatitude": 47.466253,
    "DisplayLongitude": -122.237465,
    "ImageHeight": 249,
    "url": "https://images.wsdot.wa.gov/nw/405vc00140.jpg",
    "ImageWidth": 335,
    "IsActive": true,
    "OwnerURL": "",
    "Region": "NW",
    "SortOrder": 1200,
    "Title": "I-405 at MP 1.4: Longacres Dr"
  },
  {
    "id": 9082,
    "CameraLocation": "null|B|47.466956|-122.232404|2|I-405",
    "CameraOwner": "",
    "Description": "",
    "DisplayLatitude": 47.466956,
    "DisplayLongitude": -122.232404,
    "ImageHeight": 249,
    "url": "https://images.wsdot.wa.gov/nw/405vc00163.jpg",
    "ImageWidth": 335,
    "IsActive": true,
    "OwnerURL": "",
    "Region": "NW",
    "SortOrder": 1200,
    "Title": "I-405 at MP 1.6: Oakesdale Ave"
  },
  {
    "id": 1061,
    "CameraLocation": "null|B|47.46736|-122.22492|2|I-405",
    "CameraOwner": "",
    "Description": "",
    "DisplayLatitude": 47.46736,
    "DisplayLongitude": -122.22492,
    "ImageHeight": 249,
    "url": "https://images.wsdot.wa.gov/nw/405vc00229.jpg",
    "ImageWidth": 335,
    "IsActive": true,
    "OwnerURL": "",
    "Region": "NW",
    "SortOrder": 1200,
    "Title": "I-405 at MP 2.2: SR 167 Interchange"
  },
  {
    "id": 1363,
    "CameraLocation": "null|B|47.468841|-122.208325|3|I-405",
    "CameraOwner": "",
    "Description": "",
    "DisplayLatitude": 47.468841,
    "DisplayLongitude": -122.208325,
    "ImageHeight": 249,
    "url": "https://images.wsdot.wa.gov/nw/405vc00277.jpg",
    "ImageWidth": 335,
    "IsActive": true,
    "OwnerURL": "",
    "Region": "NW",
    "SortOrder": 1200,
    "Title": "I-405 at MP 2.7: Talbot Rd S"
  },
  {
    "id": 9624,
    "CameraLocation": "null|B|47.471496|-122.204394|3|I-405",
    "CameraOwner": "",
    "Description": "",
    "DisplayLatitude": 47.471496,
    "DisplayLongitude": -122.204394,
    "ImageHeight": 249,
    "url": "https://images.wsdot.wa.gov/nw/405vc00304.jpg",
    "ImageWidth": 335,
    "IsActive": true,
    "OwnerURL": "",
    "Region": "NW",
    "SortOrder": 1200,
    "Title": "I-405 at MP 3: S 10th St"
  },
  {
    "id": 9625,
    "CameraLocation": "null|B|47.477447|-122.203267|3|I-405",
    "CameraOwner": "",
    "Description": "",
    "DisplayLatitude": 47.477447,
    "DisplayLongitude": -122.203267,
    "ImageHeight": 249,
    "url": "https://images.wsdot.wa.gov/nw/405vc00345.jpg",
    "ImageWidth": 335,
    "IsActive": true,
    "OwnerURL": "",
    "Region": "NW",
    "SortOrder": 1200,
    "Title": "I-405 at MP 3.4: S 5th St"
  },
  {
    "id": 9626,
    "CameraLocation": "null|B|47.479852|-122.20098|3|I-405",
    "CameraOwner": "",
    "Description": "",
    "DisplayLatitude": 47.479852,
    "DisplayLongitude": -122.20098,
    "ImageHeight": 249,
    "url": "https://images.wsdot.wa.gov/nw/405vc00364.jpg",
    "ImageWidth": 335,
    "IsActive": true,
    "OwnerURL": "",
    "Region": "NW",
    "SortOrder": 1200,
    "Title": "I-405 at MP 3.6: S 3rd St"
  },
  {
    "id": 1062,
    "CameraLocation": "null|N|47.485276|-122.194868|4|I-405",
    "CameraOwner": "",
    "Description": "",
    "DisplayLatitude": 47.485276,
    "DisplayLongitude": -122.194868,
    "ImageHeight": 249,
    "url": "https://images.wsdot.wa.gov/nw/405vc00417.jpg",
    "ImageWidth": 335,
    "IsActive": true,
    "OwnerURL": "",
    "Region": "NW",
    "SortOrder": 1200,
    "Title": "I-405 at MP 4.1: SR 169 Interchange"
  },
  {
    "id": 1063,
    "CameraLocation": "null|B|47.493312|-122.191465|4|I-405",
    "CameraOwner": "",
    "Description": "",
    "DisplayLatitude": 47.493312,
    "DisplayLongitude": -122.191465,
    "ImageHeight": 249,
    "url": "https://images.wsdot.wa.gov/nw/405vc00475.jpg",
    "ImageWidth": 335,
    "IsActive": true,
    "OwnerURL": "",
    "Region": "NW",
    "SortOrder": 1200,
    "Title": "I-405 at MP 4.7: Sunset Blvd"
  },
  {
    "id": 1064,
    "CameraLocation": "null|B|47.502|-122.1966|5|I-405",
    "CameraOwner": "",
    "Description": "",
    "DisplayLatitude": 47.502,
    "DisplayLongitude": -122.1966,
    "ImageHeight": 249,
    "url": "https://images.wsdot.wa.gov/nw/405vc00537.jpg",
    "ImageWidth": 335,
    "IsActive": true,
    "OwnerURL": "",
    "Region": "NW",
    "SortOrder": 1200,
    "Title": "I-405 at MP 5.3: NE Park Dr"
  },
  {
    "id": 1366,
    "CameraLocation": "null|B|47.511264|-122.19842|6|I-405",
    "CameraOwner": "",
    "Description": "",
    "DisplayLatitude": 47.511264,
    "DisplayLongitude": -122.19842,
    "ImageHeight": 249,
    "url": "https://images.wsdot.wa.gov/nw/405vc00602.jpg",
    "ImageWidth": 335,
    "IsActive": true,
    "OwnerURL": "",
    "Region": "NW",
    "SortOrder": 1200,
    "Title": "I-405 at MP 6: NE 24th St"
  },
  {
    "id": 1065,
    "CameraLocation": "null|B|47.518858|-122.19881|6|I-405",
    "CameraOwner": "",
    "Description": "",
    "DisplayLatitude": 47.518858,
    "DisplayLongitude": -122.19881,
    "ImageHeight": 249,
    "url": "https://images.wsdot.wa.gov/nw/405vc00652.jpg",
    "ImageWidth": 335,
    "IsActive": true,
    "OwnerURL": "",
    "Region": "NW",
    "SortOrder": 1200,
    "Title": "I-405 at MP 6.5: NE 30th St"
  },
  {
    "id": 1066,
    "CameraLocation": "null|B|47.5323|-122.1974|7|I-405",
    "CameraOwner": "",
    "Description": "",
    "DisplayLatitude": 47.5323,
    "DisplayLongitude": -122.1974,
    "ImageHeight": 249,
    "url": "https://images.wsdot.wa.gov/nw/405vc00747.jpg",
    "ImageWidth": 335,
    "IsActive": true,
    "OwnerURL": "",
    "Region": "NW",
    "SortOrder": 1200,
    "Title": "I-405 at MP 7.4: NE 44th St"
  },
  {
    "id": 1367,
    "CameraLocation": "null|B|47.539878|-122.194727|8|I-405",
    "CameraOwner": "",
    "Description": "",
    "DisplayLatitude": 47.539878,
    "DisplayLongitude": -122.194727,
    "ImageHeight": 249,
    "url": "https://images.wsdot.wa.gov/nw/405vc00800.jpg",
    "ImageWidth": 335,
    "IsActive": true,
    "OwnerURL": "",
    "Region": "NW",
    "SortOrder": 1200,
    "Title": "I-405 at MP 8: SE 71st St"
  },
  {
    "id": 1067,
    "CameraLocation": "null|B|47.545175|-122.195218|8|I-405",
    "CameraOwner": "",
    "Description": "",
    "DisplayLatitude": 47.545175,
    "DisplayLongitude": -122.195218,
    "ImageHeight": 249,
    "url": "https://images.wsdot.wa.gov/nw/405vc00840.jpg",
    "ImageWidth": 335,
    "IsActive": true,
    "OwnerURL": "",
    "Region": "NW",
    "SortOrder": 1200,
    "Title": "I-405 at MP 8.4: SE 64th St"
  },
  {
    "id": 1368,
    "CameraLocation": "null|B|47.552195|-122.193949|8|I-405",
    "CameraOwner": "",
    "Description": "",
    "DisplayLatitude": 47.552195,
    "DisplayLongitude": -122.193949,
    "ImageHeight": 249,
    "url": "https://images.wsdot.wa.gov/nw/405vc00889.jpg",
    "ImageWidth": 335,
    "IsActive": true,
    "OwnerURL": "",
    "Region": "NW",
    "SortOrder": 1200,
    "Title": "I-405 at MP 8.8: SE 59th St"
  },
  {
    "id": 1068,
    "CameraLocation": "null|B|47.557|-122.1902|9|I-405",
    "CameraOwner": "",
    "Description": "",
    "DisplayLatitude": 47.557,
    "DisplayLongitude": -122.1902,
    "ImageHeight": 249,
    "url": "https://images.wsdot.wa.gov/nw/405vc00926.jpg",
    "ImageWidth": 335,
    "IsActive": true,
    "OwnerURL": "",
    "Region": "NW",
    "SortOrder": 1200,
    "Title": "I-405 at MP 9.2: 112th Ave SE"
  },
  {
    "id": 1369,
    "CameraLocation": "null|B|47.562519|-122.187254|9|I-405",
    "CameraOwner": "",
    "Description": "",
    "DisplayLatitude": 47.562519,
    "DisplayLongitude": -122.187254,
    "ImageHeight": 249,
    "url": "https://images.wsdot.wa.gov/nw/405vc00986.jpg",
    "ImageWidth": 335,
    "IsActive": true,
    "OwnerURL": "",
    "Region": "NW",
    "SortOrder": 1200,
    "Title": "I-405 at MP 9.8: SE 45th St"
  },
  {
    "id": 1069,
    "CameraLocation": "null|B|47.567617|-122.1821|10|I-405",
    "CameraOwner": "",
    "Description": "",
    "DisplayLatitude": 47.567617,
    "DisplayLongitude": -122.1821,
    "ImageHeight": 249,
    "url": "https://images.wsdot.wa.gov/nw/405vc01016.jpg",
    "ImageWidth": 335,
    "IsActive": true,
    "OwnerURL": "",
    "Region": "NW",
    "SortOrder": 1200,
    "Title": "I-405 at MP 10.1: Coal Creek Pkwy"
  },
  {
    "id": 1370,
    "CameraLocation": "null|B|47.5739|-122.1758|10|I-405",
    "CameraOwner": "",
    "Description": "",
    "DisplayLatitude": 47.5739,
    "DisplayLongitude": -122.1758,
    "ImageHeight": 249,
    "url": "https://images.wsdot.wa.gov/nw/405vc01066.jpg",
    "ImageWidth": 335,
    "IsActive": true,
    "OwnerURL": "",
    "Region": "NW",
    "SortOrder": 1200,
    "Title": "I-405 at MP 10.6: SE 40th St"
  },
  {
    "id": 1070,
    "CameraLocation": "null|B|47.57927|-122.1738|11|I-405",
    "CameraOwner": "",
    "Description": "",
    "DisplayLatitude": 47.57927,
    "DisplayLongitude": -122.1738,
    "ImageHeight": 249,
    "url": "https://images.wsdot.wa.gov/nw/405vc01106.jpg",
    "ImageWidth": 335,
    "IsActive": true,
    "OwnerURL": "",
    "Region": "NW",
    "SortOrder": 1200,
    "Title": "I-405 at MP 11: I-90 Interchange (Factoria)"
  },
  {
    "id": 1371,
    "CameraLocation": "null|B|47.579582|-122.174818|11|I-405",
    "CameraOwner": "",
    "Description": "",
    "DisplayLatitude": 47.579582,
    "DisplayLongitude": -122.174818,
    "ImageHeight": 249,
    "url": "https://images.wsdot.wa.gov/nw/405vc01105.jpg",
    "ImageWidth": 335,
    "IsActive": true,
    "OwnerURL": "",
    "Region": "NW",
    "SortOrder": 1200,
    "Title": "I-405 at MP 11: I-90 Interchange SE Quad"
  },
  {
    "id": 9627,
    "CameraLocation": "null|B|47.581313|-122.174639|11|I-405",
    "CameraOwner": "",
    "Description": "",
    "DisplayLatitude": 47.581313,
    "DisplayLongitude": -122.174639,
    "ImageHeight": 249,
    "url": "https://images.wsdot.wa.gov/nw/405vc01118.jpg",
    "ImageWidth": 335,
    "IsActive": true,
    "OwnerURL": "",
    "Region": "NW",
    "SortOrder": 1200,
    "Title": "I-405 at MP 11.1: I-90 Interchange, NW Quadrant"
  },
  {
    "id": 9628,
    "CameraLocation": "null|B|47.581761|-122.174846|11|I-405",
    "CameraOwner": "",
    "Description": "",
    "DisplayLatitude": 47.581761,
    "DisplayLongitude": -122.174846,
    "ImageHeight": 249,
    "url": "https://images.wsdot.wa.gov/nw/405vc01121.jpg",
    "ImageWidth": 335,
    "IsActive": true,
    "OwnerURL": "",
    "Region": "NW",
    "SortOrder": 1200,
    "Title": "I-405 at MP 11.2: Richards Rd"
  },
  {
    "id": 1071,
    "CameraLocation": "null|S|47.59268|-122.18048|12|I-405",
    "CameraOwner": "",
    "Description": "",
    "DisplayLatitude": 47.59268,
    "DisplayLongitude": -122.18048,
    "ImageHeight": 249,
    "url": "https://images.wsdot.wa.gov/nw/405vc01194.jpg",
    "ImageWidth": 335,
    "IsActive": true,
    "OwnerURL": "",
    "Region": "NW",
    "SortOrder": 1200,
    "Title": "I-405 at MP 11.9: SE 20th St, SB"
  },
  {
    "id": 9083,
    "CameraLocation": "null|B|47.592156|-122.180483|12|I-405",
    "CameraOwner": "",
    "Description": "",
    "DisplayLatitude": 47.592156,
    "DisplayLongitude": -122.180483,
    "ImageHeight": 249,
    "url": "https://images.wsdot.wa.gov/nw/405vc01199.jpg",
    "ImageWidth": 335,
    "IsActive": true,
    "OwnerURL": "",
    "Region": "NW",
    "SortOrder": 1200,
    "Title": "I-405 at MP 11.9: SE 20th St, NB"
  },
  {
    "id": 9629,
    "CameraLocation": "null|B|47.592323|-122.180488|12|I-405",
    "CameraOwner": "",
    "Description": "",
    "DisplayLatitude": 47.592323,
    "DisplayLongitude": -122.180488,
    "ImageHeight": 249,
    "url": "https://images.wsdot.wa.gov/nw/405vc01200.jpg",
    "ImageWidth": 335,
    "IsActive": true,
    "OwnerURL": "",
    "Region": "NW",
    "SortOrder": 1200,
    "Title": "I-405 at MP 12: SE 19th St, NB"
  },
  {
    "id": 9084,
    "CameraLocation": "null|N|47.601158|-122.181794|12|I-405",
    "CameraOwner": "",
    "Description": "",
    "DisplayLatitude": 47.601158,
    "DisplayLongitude": -122.181794,
    "ImageHeight": 249,
    "url": "https://images.wsdot.wa.gov/nw/405vc01261.jpg",
    "ImageWidth": 335,
    "IsActive": true,
    "OwnerURL": "",
    "Region": "NW",
    "SortOrder": 1200,
    "Title": "I-405 at MP 12.6: SE 9th Pl"
  },
  {
    "id": 1072,
    "CameraLocation": "null|B|47.6039|-122.1845|12|I-405",
    "CameraOwner": "",
    "Description": "",
    "DisplayLatitude": 47.6039,
    "DisplayLongitude": -122.1845,
    "ImageHeight": 249,
    "url": "https://images.wsdot.wa.gov/nw/405vc01286.jpg",
    "ImageWidth": 335,
    "IsActive": true,
    "OwnerURL": "",
    "Region": "NW",
    "SortOrder": 1200,
    "Title": "I-405 at MP 12.8: SE 8th St"
  },
  {
    "id": 1374,
    "CameraLocation": "null|B|47.61005|-122.188362|13|I-405",
    "CameraOwner": "",
    "Description": "",
    "DisplayLatitude": 47.61005,
    "DisplayLongitude": -122.188362,
    "ImageHeight": 249,
    "url": "https://images.wsdot.wa.gov/nw/405vc01331.jpg",
    "ImageWidth": 335,
    "IsActive": true,
    "OwnerURL": "",
    "Region": "NW",
    "SortOrder": 1200,
    "Title": "I-405 at MP 13.3: Main St"
  },
  {
    "id": 1375,
    "CameraLocation": "null|B|47.613634|-122.188441|13|I-405",
    "CameraOwner": "",
    "Description": "",
    "DisplayLatitude": 47.613634,
    "DisplayLongitude": -122.188441,
    "ImageHeight": 249,
    "url": "https://images.wsdot.wa.gov/nw/405vc01355.jpg",
    "ImageWidth": 335,
    "IsActive": true,
    "OwnerURL": "",
    "Region": "NW",
    "SortOrder": 1200,
    "Title": "I-405 at MP 13.5: NE 4th St"
  },
  {
    "id": 1376,
    "CameraLocation": "null|B|47.6154|-122.1889|13|I-405",
    "CameraOwner": "",
    "Description": "",
    "DisplayLatitude": 47.6154,
    "DisplayLongitude": -122.1889,
    "ImageHeight": 249,
    "url": "https://images.wsdot.wa.gov/nw/405vc01368.jpg",
    "ImageWidth": 335,
    "IsActive": true,
    "OwnerURL": "",
    "Region": "NW",
    "SortOrder": 1200,
    "Title": "I-405 at MP 13.6: NE 6th St"
  },
  {
    "id": 1073,
    "CameraLocation": "null|B|47.6175|-122.1889|13|I-405",
    "CameraOwner": "",
    "Description": "",
    "DisplayLatitude": 47.6175,
    "DisplayLongitude": -122.1889,
    "ImageHeight": 249,
    "url": "https://images.wsdot.wa.gov/nw/405vc01383.jpg",
    "ImageWidth": 335,
    "IsActive": true,
    "OwnerURL": "",
    "Region": "NW",
    "SortOrder": 1200,
    "Title": "I-405 at MP 13.8: NE 8th St"
  },
  {
    "id": 9630,
    "CameraLocation": "null|B|47.618827|-122.188556|13|I-405",
    "CameraOwner": "",
    "Description": "",
    "DisplayLatitude": 47.618827,
    "DisplayLongitude": -122.188556,
    "ImageHeight": 249,
    "url": "https://images.wsdot.wa.gov/nw/405vc01392.jpg",
    "ImageWidth": 335,
    "IsActive": true,
    "OwnerURL": "",
    "Region": "NW",
    "SortOrder": 1200,
    "Title": "I-405 at MP 13.9: NE 9th St"
  },
  {
    "id": 9631,
    "CameraLocation": "null|B|47.619677|-122.188555|13|I-405",
    "CameraOwner": "",
    "Description": "",
    "DisplayLatitude": 47.619677,
    "DisplayLongitude": -122.188555,
    "ImageHeight": 249,
    "url": "https://images.wsdot.wa.gov/nw/405vc01398.jpg",
    "ImageWidth": 335,
    "IsActive": true,
    "OwnerURL": "",
    "Region": "NW",
    "SortOrder": 1200,
    "Title": "I-405 at MP 13.9: NE 10th St"
  },
  {
    "id": 1377,
    "CameraLocation": "null|B|47.624113|-122.189179|14|I-405",
    "CameraOwner": "",
    "Description": "",
    "DisplayLatitude": 47.624113,
    "DisplayLongitude": -122.189179,
    "ImageHeight": 249,
    "url": "https://images.wsdot.wa.gov/nw/405vc01427.jpg",
    "ImageWidth": 335,
    "IsActive": true,
    "OwnerURL": "",
    "Region": "NW",
    "SortOrder": 1200,
    "Title": "I-405 at MP 14.2: NE 14th St"
  },
  {
    "id": 9632,
    "CameraLocation": "null|B|47.628397|-122.188466|14|I-405",
    "CameraOwner": "",
    "Description": "",
    "DisplayLatitude": 47.628397,
    "DisplayLongitude": -122.188466,
    "ImageHeight": 249,
    "url": "https://images.wsdot.wa.gov/nw/405vc01458.jpg",
    "ImageWidth": 335,
    "IsActive": true,
    "OwnerURL": "",
    "Region": "NW",
    "SortOrder": 1200,
    "Title": "I-405 at MP 14.5: NE 20th St"
  },
  {
    "id": 9633,
    "CameraLocation": "null|B|47.629968|-122.188236|14|I-405",
    "CameraOwner": "",
    "Description": "",
    "DisplayLatitude": 47.629968,
    "DisplayLongitude": -122.188236,
    "ImageHeight": 249,
    "url": "https://images.wsdot.wa.gov/nw/405vc01469.jpg",
    "ImageWidth": 335,
    "IsActive": true,
    "OwnerURL": "",
    "Region": "NW",
    "SortOrder": 1200,
    "Title": "I-405 at MP 14.6: NE 22nd St"
  },
  {
    "id": 1196,
    "CameraLocation": "null|B|47.642126|-122.200749|14|I-405",
    "CameraOwner": "",
    "Description": "",
    "DisplayLatitude": 47.642126,
    "DisplayLongitude": -122.200749,
    "ImageHeight": 249,
    "url": "https://images.wsdot.wa.gov/nw/405vc01483.jpg",
    "ImageWidth": 335,
    "IsActive": true,
    "OwnerURL": "",
    "Region": "NW",
    "SortOrder": 1200,
    "Title": "I-405 at MP 14.8: SR 520 Interchange"
  },
  {
    "id": 1379,
    "CameraLocation": "null|B|47.64526|-122.186526|15|I-405",
    "CameraOwner": "",
    "Description": "",
    "DisplayLatitude": 47.64526,
    "DisplayLongitude": -122.186526,
    "ImageHeight": 249,
    "url": "https://images.wsdot.wa.gov/nw/405vc01575.jpg",
    "ImageWidth": 335,
    "IsActive": true,
    "OwnerURL": "",
    "Region": "NW",
    "SortOrder": 1200,
    "Title": "I-405 at MP 15.7: NE 40th St"
  },
  {
    "id": 1075,
    "CameraLocation": "null|B|47.659689|-122.186885|16|I-405",
    "CameraOwner": "",
    "Description": "",
    "DisplayLatitude": 47.659689,
    "DisplayLongitude": -122.186885,
    "ImageHeight": 249,
    "url": "https://images.wsdot.wa.gov/nw/405vc01675.jpg",
    "ImageWidth": 335,
    "IsActive": true,
    "OwnerURL": "",
    "Region": "NW",
    "SortOrder": 1200,
    "Title": "I-405 at MP 16.7: NE 59th St"
  },
  {
    "id": 1380,
    "CameraLocation": "null|B|47.669434|-122.18749|17|I-405",
    "CameraOwner": "",
    "Description": "",
    "DisplayLatitude": 47.669434,
    "DisplayLongitude": -122.18749,
    "ImageHeight": 249,
    "url": "https://images.wsdot.wa.gov/nw/405vc01742.jpg",
    "ImageWidth": 335,
    "IsActive": true,
    "OwnerURL": "",
    "Region": "NW",
    "SortOrder": 1200,
    "Title": "I-405 at MP 17.4: NE 70nd Pl"
  },
  {
    "id": 9691,
    "CameraLocation": "null|B|47.672222|-122.186701|17|I-405",
    "CameraOwner": "",
    "Description": "",
    "DisplayLatitude": 47.672222,
    "DisplayLongitude": -122.186701,
    "ImageHeight": 249,
    "url": "https://images.wsdot.wa.gov/nw/405vc01762.jpg",
    "ImageWidth": 335,
    "IsActive": true,
    "OwnerURL": "",
    "Region": "NW",
    "SortOrder": 1200,
    "Title": "I-405 at MP 17.6: NE 75th St"
  },
  {
    "id": 1076,
    "CameraLocation": "null|B|47.6799|-122.1843|18|I-405",
    "CameraOwner": "",
    "Description": "",
    "DisplayLatitude": 47.6799,
    "DisplayLongitude": -122.1843,
    "ImageHeight": 249,
    "url": "https://images.wsdot.wa.gov/nw/405vc01801.jpg",
    "ImageWidth": 335,
    "IsActive": true,
    "OwnerURL": "",
    "Region": "NW",
    "SortOrder": 1200,
    "Title": "I-405 at MP 18: NE 85th St"
  },
  {
    "id": 1381,
    "CameraLocation": "null|B|47.68971|-122.181323|18|I-405",
    "CameraOwner": "",
    "Description": "",
    "DisplayLatitude": 47.68971,
    "DisplayLongitude": -122.181323,
    "ImageHeight": 249,
    "url": "https://images.wsdot.wa.gov/nw/405vc01887.jpg",
    "ImageWidth": 335,
    "IsActive": true,
    "OwnerURL": "",
    "Region": "NW",
    "SortOrder": 1200,
    "Title": "I-405 at MP 18.8: NE 100th St"
  },
  {
    "id": 9634,
    "CameraLocation": "null|B|47.703676|-122.179257|19|I-405",
    "CameraOwner": "",
    "Description": "",
    "DisplayLatitude": 47.703676,
    "DisplayLongitude": -122.179257,
    "ImageHeight": 249,
    "url": "https://images.wsdot.wa.gov/nw/405vc01983.jpg",
    "ImageWidth": 335,
    "IsActive": true,
    "OwnerURL": "",
    "Region": "NW",
    "SortOrder": 1200,
    "Title": "I-405 at MP 19.8: NE 116th St, SPUI"
  },
  {
    "id": 1077,
    "CameraLocation": "null|B|47.704526|-122.179593|19|I-405",
    "CameraOwner": "",
    "Description": "",
    "DisplayLatitude": 47.704526,
    "DisplayLongitude": -122.179593,
    "ImageHeight": 249,
    "url": "https://images.wsdot.wa.gov/nw/405vc01987.jpg",
    "ImageWidth": 335,
    "IsActive": true,
    "OwnerURL": "",
    "Region": "NW",
    "SortOrder": 1200,
    "Title": "I-405 at MP 19.8: NE 116th St"
  },
  {
    "id": 1078,
    "CameraLocation": "null|B|47.7099|-122.1823|20|I-405",
    "CameraOwner": "",
    "Description": "",
    "DisplayLatitude": 47.7099,
    "DisplayLongitude": -122.1823,
    "ImageHeight": 249,
    "url": "https://images.wsdot.wa.gov/nw/405vc02030.jpg",
    "ImageWidth": 335,
    "IsActive": true,
    "OwnerURL": "",
    "Region": "NW",
    "SortOrder": 1200,
    "Title": "I-405 at MP 20.3: NE 124th St"
  },
  {
    "id": 9635,
    "CameraLocation": "null|B|47.714984|-122.185132|20|I-405",
    "CameraOwner": "",
    "Description": "",
    "DisplayLatitude": 47.714984,
    "DisplayLongitude": -122.185132,
    "ImageHeight": 249,
    "url": "https://images.wsdot.wa.gov/nw/405vc02066.jpg",
    "ImageWidth": 335,
    "IsActive": true,
    "OwnerURL": "",
    "Region": "NW",
    "SortOrder": 1200,
    "Title": "I-405 at MP 20.6: NE 128th St"
  },
  {
    "id": 1079,
    "CameraLocation": "null|B|47.71879|-122.18813|20|I-405",
    "CameraOwner": "",
    "Description": "",
    "DisplayLatitude": 47.71879,
    "DisplayLongitude": -122.18813,
    "ImageHeight": 249,
    "url": "https://images.wsdot.wa.gov/nw/405vc02095.jpg",
    "ImageWidth": 335,
    "IsActive": true,
    "OwnerURL": "",
    "Region": "NW",
    "SortOrder": 1200,
    "Title": "I-405 at MP 20.9: NE 132nd St"
  },
  {
    "id": 1382,
    "CameraLocation": "null|B|47.72981|-122.189338|21|I-405",
    "CameraOwner": "",
    "Description": "",
    "DisplayLatitude": 47.72981,
    "DisplayLongitude": -122.189338,
    "ImageHeight": 249,
    "url": "https://images.wsdot.wa.gov/nw/405vc02182.jpg",
    "ImageWidth": 335,
    "IsActive": true,
    "OwnerURL": "",
    "Region": "NW",
    "SortOrder": 1200,
    "Title": "I-405 at MP 21.8: NE 144th St"
  },
  {
    "id": 1080,
    "CameraLocation": "null|B|47.7427|-122.1869|22|I-405",
    "CameraOwner": "",
    "Description": "",
    "DisplayLatitude": 47.7427,
    "DisplayLongitude": -122.1869,
    "ImageHeight": 249,
    "url": "https://images.wsdot.wa.gov/nw/405vc02256.jpg",
    "ImageWidth": 335,
    "IsActive": true,
    "OwnerURL": "",
    "Region": "NW",
    "SortOrder": 1200,
    "Title": "I-405 at MP 22.5: NE 160th St"
  },
  {
    "id": 1383,
    "CameraLocation": "null|B|47.75848|-122.184557|23|I-405",
    "CameraOwner": "",
    "Description": "",
    "DisplayLatitude": 47.75848,
    "DisplayLongitude": -122.184557,
    "ImageHeight": 249,
    "url": "https://images.wsdot.wa.gov/nw/405vc02371.jpg",
    "ImageWidth": 335,
    "IsActive": true,
    "OwnerURL": "",
    "Region": "NW",
    "SortOrder": 1200,
    "Title": "I-405 at MP 23.6: SR 522 Interchange"
  },
  {
    "id": 1082,
    "CameraLocation": "null|B|47.7692|-122.1895|24|I-405",
    "CameraOwner": "",
    "Description": "",
    "DisplayLatitude": 47.7692,
    "DisplayLongitude": -122.1895,
    "ImageHeight": 249,
    "url": "https://images.wsdot.wa.gov/nw/405vc02452.jpg",
    "ImageWidth": 335,
    "IsActive": true,
    "OwnerURL": "",
    "Region": "NW",
    "SortOrder": 1200,
    "Title": "I-405 at MP 24.5: NE 195th St"
  },
  {
    "id": 1384,
    "CameraLocation": "null|S|47.7835|-122.1946|25|I-405",
    "CameraOwner": "",
    "Description": "",
    "DisplayLatitude": 47.7835,
    "DisplayLongitude": -122.1946,
    "ImageHeight": 249,
    "url": "https://images.wsdot.wa.gov/nw/405vc02553.jpg",
    "ImageWidth": 335,
    "IsActive": true,
    "OwnerURL": "",
    "Region": "NW",
    "SortOrder": 1200,
    "Title": "I-405 at MP 25.5: 236th St SE, SB"
  },
  {
    "id": 1385,
    "CameraLocation": "null|N|47.784913|-122.195293|25|I-405",
    "CameraOwner": "",
    "Description": "",
    "DisplayLatitude": 47.784913,
    "DisplayLongitude": -122.195293,
    "ImageHeight": 249,
    "url": "https://images.wsdot.wa.gov/nw/405vc02563.jpg",
    "ImageWidth": 335,
    "IsActive": true,
    "OwnerURL": "",
    "Region": "NW",
    "SortOrder": 1200,
    "Title": "I-405 at MP 25.6: 236th St SE, NB"
  },
  {
    "id": 9636,
    "CameraLocation": "null|B|47.787856|-122.200128|25|I-405",
    "CameraOwner": "",
    "Description": "",
    "DisplayLatitude": 47.787856,
    "DisplayLongitude": -122.200128,
    "ImageHeight": 249,
    "url": "https://images.wsdot.wa.gov/nw/405vc02594.jpg",
    "ImageWidth": 335,
    "IsActive": true,
    "OwnerURL": "",
    "Region": "NW",
    "SortOrder": 1200,
    "Title": "I-405 at MP 25.9: 232nd St SE"
  },
  {
    "id": 1387,
    "CameraLocation": "null|B|47.79421|-122.213882|26|I-405",
    "CameraOwner": "",
    "Description": "",
    "DisplayLatitude": 47.79421,
    "DisplayLongitude": -122.213882,
    "ImageHeight": 249,
    "url": "https://images.wsdot.wa.gov/nw/405vc02665.jpg",
    "ImageWidth": 335,
    "IsActive": true,
    "OwnerURL": "",
    "Region": "NW",
    "SortOrder": 1200,
    "Title": "I-405 at MP 26.6: SR 527, Westside"
  },
  {
    "id": 1388,
    "CameraLocation": "null|B|47.7949|-122.214|26|I-405",
    "CameraOwner": "",
    "Description": "",
    "DisplayLatitude": 47.7949,
    "DisplayLongitude": -122.214,
    "ImageHeight": 249,
    "url": "https://images.wsdot.wa.gov/nw/405vc02674.jpg",
    "ImageWidth": 335,
    "IsActive": true,
    "OwnerURL": "",
    "Region": "NW",
    "SortOrder": 1200,
    "Title": "I-405 at MP 26.7: SR 527, Median"
  },
  {
    "id": 1389,
    "CameraLocation": "null|B|47.801781|-122.224666|27|I-405",
    "CameraOwner": "",
    "Description": "",
    "DisplayLatitude": 47.801781,
    "DisplayLongitude": -122.224666,
    "ImageHeight": 249,
    "url": "https://images.wsdot.wa.gov/nw/405vc02745.jpg",
    "ImageWidth": 335,
    "IsActive": true,
    "OwnerURL": "",
    "Region": "NW",
    "SortOrder": 1200,
    "Title": "I-405 at MP 27.4: 216th St SE"
  },
  {
    "id": 9085,
    "CameraLocation": "null|N|47.803824|-122.225752|27|I-405",
    "CameraOwner": "",
    "Description": "",
    "DisplayLatitude": 47.803824,
    "DisplayLongitude": -122.225752,
    "ImageHeight": 249,
    "url": "https://images.wsdot.wa.gov/nw/405vc02760.jpg",
    "ImageWidth": 335,
    "IsActive": true,
    "OwnerURL": "",
    "Region": "NW",
    "SortOrder": 1200,
    "Title": "I-405 at MP 27.6: 213th St SE"
  },
  {
    "id": 1085,
    "CameraLocation": "null|B|47.8129|-122.2305|28|I-405",
    "CameraOwner": "",
    "Description": "",
    "DisplayLatitude": 47.8129,
    "DisplayLongitude": -122.2305,
    "ImageHeight": 249,
    "url": "https://images.wsdot.wa.gov/nw/405vc02826.jpg",
    "ImageWidth": 335,
    "IsActive": true,
    "OwnerURL": "",
    "Region": "NW",
    "SortOrder": 1200,
    "Title": "I-405 at MP 28.2: 204th St SE, SB"
  },
  {
    "id": 1084,
    "CameraLocation": "null|B|47.814469|-122.23182|28|I-405",
    "CameraOwner": "",
    "Description": "",
    "DisplayLatitude": 47.814469,
    "DisplayLongitude": -122.23182,
    "ImageHeight": 249,
    "url": "https://images.wsdot.wa.gov/nw/405vc02838.jpg",
    "ImageWidth": 335,
    "IsActive": true,
    "OwnerURL": "",
    "Region": "NW",
    "SortOrder": 1200,
    "Title": "I-405 at MP 28.3: 202nd St SE, NB"
  },
  {
    "id": 1390,
    "CameraLocation": "null|B|47.819649|-122.242138|29|I-405",
    "CameraOwner": "",
    "Description": "",
    "DisplayLatitude": 47.819649,
    "DisplayLongitude": -122.242138,
    "ImageHeight": 249,
    "url": "https://images.wsdot.wa.gov/nw/405vc02895.jpg",
    "ImageWidth": 335,
    "IsActive": true,
    "OwnerURL": "",
    "Region": "NW",
    "SortOrder": 1200,
    "Title": "I-405 at MP 28.9: Damson Rd"
  },
  {
    "id": 1086,
    "CameraLocation": "null|B|47.823734|-122.251709|29|I-405",
    "CameraOwner": "",
    "Description": "",
    "DisplayLatitude": 47.823734,
    "DisplayLongitude": -122.251709,
    "ImageHeight": 249,
    "url": "https://images.wsdot.wa.gov/nw/405vc02951.jpg",
    "ImageWidth": 335,
    "IsActive": true,
    "OwnerURL": "",
    "Region": "NW",
    "SortOrder": 1200,
    "Title": "I-405 at MP 29.5: Filbert Rd"
  },
  {
    "id": 1087,
    "CameraLocation": "null|N|47.831438|-122.261705|30|I-405",
    "CameraOwner": "",
    "Description": "",
    "DisplayLatitude": 47.831438,
    "DisplayLongitude": -122.261705,
    "ImageHeight": 209,
    "url": "https://images.wsdot.wa.gov/nw/405vc03022.jpg",
    "ImageWidth": 335,
    "IsActive": false,
    "OwnerURL": "",
    "Region": "NW",
    "SortOrder": 1200,
    "Title": "I-405 at MP 30.2: I-5 Interchange  (Alderwood)"
  }
]