[
	{
    "id": 1392,
    "CameraLocation": "null|B|47.253197|-122.332013|139|I-5",
    "CameraOwner": "",
    "Description": "",
    "DisplayLatitude": 47.253197,
    "DisplayLongitude": -122.332013,
    "ImageHeight": 249,
    "url": "https://images.wsdot.wa.gov/nw/005vc13921.jpg",
    "ImageWidth": 335,
    "IsActive": true,
    "OwnerURL": "",
    "Region": "NW",
    "SortOrder": 1000,
    "Title": "I-5 at MP 139.2: Emerald St"
  },
  {
    "id": 1393,
    "CameraLocation": "null|B|47.25749|-122.329724|139|I-5",
    "CameraOwner": "",
    "Description": "",
    "DisplayLatitude": 47.25749,
    "DisplayLongitude": -122.329724,
    "ImageHeight": 249,
    "url": "https://images.wsdot.wa.gov/nw/005vc13951.jpg",
    "ImageWidth": 335,
    "IsActive": true,
    "OwnerURL": "",
    "Region": "NW",
    "SortOrder": 1000,
    "Title": "I-5 at MP 139.5: Pierce Co Line"
  },
  {
    "id": 1310,
    "CameraLocation": "null|B|47.265241|-122.321872|140|I-5",
    "CameraOwner": "",
    "Description": "",
    "DisplayLatitude": 47.265241,
    "DisplayLongitude": -122.321872,
    "ImageHeight": 249,
    "url": "https://images.wsdot.wa.gov/nw/005vc14016.jpg",
    "ImageWidth": 335,
    "IsActive": true,
    "OwnerURL": "",
    "Region": "NW",
    "SortOrder": 1000,
    "Title": "I-5 at MP 140.1: S 375th St"
  },
  {
    "id": 9273,
    "CameraLocation": "null|B|47.2711|-122.315867|140|I-5",
    "CameraOwner": "",
    "Description": "",
    "DisplayLatitude": 47.2711,
    "DisplayLongitude": -122.315867,
    "ImageHeight": 249,
    "url": "https://images.wsdot.wa.gov/nw/005vc14065.jpg",
    "ImageWidth": 335,
    "IsActive": true,
    "OwnerURL": "",
    "Region": "NW",
    "SortOrder": 1000,
    "Title": "I-5 at MP 140.6: Weigh Station"
  },
  {
    "id": 1313,
    "CameraLocation": "null|B|47.279068|-122.310502|141|I-5",
    "CameraOwner": "",
    "Description": "",
    "DisplayLatitude": 47.279068,
    "DisplayLongitude": -122.310502,
    "ImageHeight": 249,
    "url": "https://images.wsdot.wa.gov/nw/005vc14126.jpg",
    "ImageWidth": 335,
    "IsActive": true,
    "OwnerURL": "",
    "Region": "NW",
    "SortOrder": 1000,
    "Title": "I-5 at MP 141.2: Enchanted Pkwy"
  },
  {
    "id": 9503,
    "CameraLocation": "null|B|47.287781|-122.306972|141|I-5",
    "CameraOwner": "",
    "Description": "",
    "DisplayLatitude": 47.287781,
    "DisplayLongitude": -122.306972,
    "ImageHeight": 249,
    "url": "https://images.wsdot.wa.gov/nw/005vc14188.jpg",
    "ImageWidth": 335,
    "IsActive": true,
    "OwnerURL": "",
    "Region": "NW",
    "SortOrder": 1000,
    "Title": "I-5 at MP 141.8: SR 18 Interchange, S"
  },
  {
    "id": 9504,
    "CameraLocation": "null|B|47.288839|-122.306613|141|I-5",
    "CameraOwner": "",
    "Description": "",
    "DisplayLatitude": 47.288839,
    "DisplayLongitude": -122.306613,
    "ImageHeight": 249,
    "url": "https://images.wsdot.wa.gov/nw/005vc14196.jpg",
    "ImageWidth": 335,
    "IsActive": true,
    "OwnerURL": "",
    "Region": "NW",
    "SortOrder": 1000,
    "Title": "I-5 at MP 141.9: SR 18 Interchange, W"
  },
  {
    "id": 1309,
    "CameraLocation": "null|B|47.290213|-122.306145|142|I-5",
    "CameraOwner": "",
    "Description": "",
    "DisplayLatitude": 47.290213,
    "DisplayLongitude": -122.306145,
    "ImageHeight": 249,
    "url": "https://images.wsdot.wa.gov/nw/005vc14205.jpg",
    "ImageWidth": 335,
    "IsActive": true,
    "OwnerURL": "",
    "Region": "NW",
    "SortOrder": 1000,
    "Title": "I-5 at MP 142: SR 18 Interchange"
  },
  {
    "id": 1394,
    "CameraLocation": "null|B|47.303448|-122.301713|143|I-5",
    "CameraOwner": "",
    "Description": "",
    "DisplayLatitude": 47.303448,
    "DisplayLongitude": -122.301713,
    "ImageHeight": 249,
    "url": "https://images.wsdot.wa.gov/nw/005vc14300.jpg",
    "ImageWidth": 335,
    "IsActive": true,
    "OwnerURL": "",
    "Region": "NW",
    "SortOrder": 1000,
    "Title": "I-5 at MP 143: S 333rd St"
  },
  {
    "id": 1012,
    "CameraLocation": "null|B|47.314562|-122.297437|143|I-5",
    "CameraOwner": "",
    "Description": "",
    "DisplayLatitude": 47.314562,
    "DisplayLongitude": -122.297437,
    "ImageHeight": 249,
    "url": "https://images.wsdot.wa.gov/nw/005vc14379.jpg",
    "ImageWidth": 335,
    "IsActive": true,
    "OwnerURL": "",
    "Region": "NW",
    "SortOrder": 1000,
    "Title": "I-5 at MP 143.7: S 320th St"
  },
  {
    "id": 9505,
    "CameraLocation": "null|B|47.315816|-122.296923|143|I-5",
    "CameraOwner": "",
    "Description": "",
    "DisplayLatitude": 47.315816,
    "DisplayLongitude": -122.296923,
    "ImageHeight": 249,
    "url": "https://images.wsdot.wa.gov/nw/005vc14388.jpg",
    "ImageWidth": 335,
    "IsActive": true,
    "OwnerURL": "",
    "Region": "NW",
    "SortOrder": 1000,
    "Title": "I-5 at MP 143.8: S 320th St, Ramps"
  },
  {
    "id": 1395,
    "CameraLocation": "null|B|47.317485|-122.296252|144|I-5",
    "CameraOwner": "",
    "Description": "",
    "DisplayLatitude": 47.317485,
    "DisplayLongitude": -122.296252,
    "ImageHeight": 249,
    "url": "https://images.wsdot.wa.gov/nw/005vc14400.jpg",
    "ImageWidth": 335,
    "IsActive": true,
    "OwnerURL": "",
    "Region": "NW",
    "SortOrder": 1000,
    "Title": "I-5 at MP 144: S 317th St"
  },
  {
    "id": 1396,
    "CameraLocation": "null|B|47.326054|-122.293994|144|I-5",
    "CameraOwner": "",
    "Description": "",
    "DisplayLatitude": 47.326054,
    "DisplayLongitude": -122.293994,
    "ImageHeight": 249,
    "url": "https://images.wsdot.wa.gov/nw/005vc14460.jpg",
    "ImageWidth": 335,
    "IsActive": true,
    "OwnerURL": "",
    "Region": "NW",
    "SortOrder": 1000,
    "Title": "I-5 at MP 144.6: S 308th St"
  },
  {
    "id": 1397,
    "CameraLocation": "null|B|47.336258|-122.293127|145|I-5",
    "CameraOwner": "",
    "Description": "",
    "DisplayLatitude": 47.336258,
    "DisplayLongitude": -122.293127,
    "ImageHeight": 249,
    "url": "https://images.wsdot.wa.gov/nw/005vc14531.jpg",
    "ImageWidth": 335,
    "IsActive": true,
    "OwnerURL": "",
    "Region": "NW",
    "SortOrder": 1000,
    "Title": "I-5 at MP 145.3: S 296th St"
  },
  {
    "id": 1013,
    "CameraLocation": "null|B|47.346915|-122.293069|146|I-5",
    "CameraOwner": "",
    "Description": "",
    "DisplayLatitude": 47.346915,
    "DisplayLongitude": -122.293069,
    "ImageHeight": 249,
    "url": "https://images.wsdot.wa.gov/nw/005vc14605.jpg",
    "ImageWidth": 335,
    "IsActive": true,
    "OwnerURL": "",
    "Region": "NW",
    "SortOrder": 1000,
    "Title": "I-5 at MP 146: S 288th St"
  },
  {
    "id": 1398,
    "CameraLocation": "null|B|47.357842|-122.296231|146|I-5",
    "CameraOwner": "",
    "Description": "",
    "DisplayLatitude": 47.357842,
    "DisplayLongitude": -122.296231,
    "ImageHeight": 249,
    "url": "https://images.wsdot.wa.gov/nw/005vc14683.jpg",
    "ImageWidth": 335,
    "IsActive": true,
    "OwnerURL": "",
    "Region": "NW",
    "SortOrder": 1000,
    "Title": "I-5 at MP 146.8: S 272nd St"
  },
  {
    "id": 1014,
    "CameraLocation": "null|B|47.370687|-122.292991|147|I-5",
    "CameraOwner": "",
    "Description": "",
    "DisplayLatitude": 47.370687,
    "DisplayLongitude": -122.292991,
    "ImageHeight": 249,
    "url": "https://images.wsdot.wa.gov/nw/005vc14772.jpg",
    "ImageWidth": 335,
    "IsActive": true,
    "OwnerURL": "",
    "Region": "NW",
    "SortOrder": 1000,
    "Title": "I-5 at MP 147.7: S 260th St"
  },
  {
    "id": 1399,
    "CameraLocation": "null|B|47.380906|-122.290411|148|I-5",
    "CameraOwner": "",
    "Description": "",
    "DisplayLatitude": 47.380906,
    "DisplayLongitude": -122.290411,
    "ImageHeight": 249,
    "url": "https://images.wsdot.wa.gov/nw/005vc14844.jpg",
    "ImageWidth": 335,
    "IsActive": true,
    "OwnerURL": "",
    "Region": "NW",
    "SortOrder": 1000,
    "Title": "I-5 at MP 148.4: S 248th St"
  },
  {
    "id": 1015,
    "CameraLocation": "null|B|47.391474|-122.290695|149|I-5",
    "CameraOwner": "",
    "Description": "",
    "DisplayLatitude": 47.391474,
    "DisplayLongitude": -122.290695,
    "ImageHeight": 249,
    "url": "https://images.wsdot.wa.gov/nw/005vc14918.jpg",
    "ImageWidth": 335,
    "IsActive": true,
    "OwnerURL": "",
    "Region": "NW",
    "SortOrder": 1000,
    "Title": "I-5 at MP 149.1: SR 516 Interchange"
  },
  {
    "id": 1400,
    "CameraLocation": "null|B|47.408608|-122.291668|150|I-5",
    "CameraOwner": "",
    "Description": "",
    "DisplayLatitude": 47.408608,
    "DisplayLongitude": -122.291668,
    "ImageHeight": 249,
    "url": "https://images.wsdot.wa.gov/nw/005vc15036.jpg",
    "ImageWidth": 335,
    "IsActive": true,
    "OwnerURL": "",
    "Region": "NW",
    "SortOrder": 1000,
    "Title": "I-5 at MP 150.3: S 216th St"
  },
  {
    "id": 1016,
    "CameraLocation": "null|B|47.421144|-122.286042|151|I-5",
    "CameraOwner": "",
    "Description": "",
    "DisplayLatitude": 47.421144,
    "DisplayLongitude": -122.286042,
    "ImageHeight": 249,
    "url": "https://images.wsdot.wa.gov/nw/005vc15128.jpg",
    "ImageWidth": 335,
    "IsActive": true,
    "OwnerURL": "",
    "Region": "NW",
    "SortOrder": 1000,
    "Title": "I-5 at MP 151.2: S 200th St"
  },
  {
    "id": 1017,
    "CameraLocation": "null|B|47.431916|-122.27126|152|I-5",
    "CameraOwner": "",
    "Description": "",
    "DisplayLatitude": 47.431916,
    "DisplayLongitude": -122.27126,
    "ImageHeight": 249,
    "url": "https://images.wsdot.wa.gov/nw/005vc15230.jpg",
    "ImageWidth": 335,
    "IsActive": true,
    "OwnerURL": "",
    "Region": "NW",
    "SortOrder": 1000,
    "Title": "I-5 at MP 152.3: S 188th St"
  },
  {
    "id": 1018,
    "CameraLocation": "null|B|47.4438|-122.2682|153|I-5",
    "CameraOwner": "",
    "Description": "",
    "DisplayLatitude": 47.4438,
    "DisplayLongitude": -122.2682,
    "ImageHeight": 249,
    "url": "https://images.wsdot.wa.gov/nw/005vc15315.jpg",
    "ImageWidth": 335,
    "IsActive": true,
    "OwnerURL": "",
    "Region": "NW",
    "SortOrder": 1000,
    "Title": "I-5 at MP 153.1: S 178th St"
  },
  {
    "id": 1401,
    "CameraLocation": "null|B|47.457242|-122.263991|154|I-5",
    "CameraOwner": "",
    "Description": "",
    "DisplayLatitude": 47.457242,
    "DisplayLongitude": -122.263991,
    "ImageHeight": 249,
    "url": "https://images.wsdot.wa.gov/nw/005vc15410.jpg",
    "ImageWidth": 335,
    "IsActive": true,
    "OwnerURL": "",
    "Region": "NW",
    "SortOrder": 1000,
    "Title": "I-5 at MP 154.1: Klickitat Rd"
  },
  {
    "id": 9507,
    "CameraLocation": "null|B|47.463126|-122.264345|154|I-5",
    "CameraOwner": "",
    "Description": "",
    "DisplayLatitude": 47.463126,
    "DisplayLongitude": -122.264345,
    "ImageHeight": 249,
    "url": "https://images.wsdot.wa.gov/nw/005vc15452.jpg",
    "ImageWidth": 335,
    "IsActive": true,
    "OwnerURL": "",
    "Region": "NW",
    "SortOrder": 1000,
    "Title": "I-5 at MP 154.5: SR 518 Interchange"
  },
  {
    "id": 9054,
    "CameraLocation": "null|B|47.463236|-122.26443|154|I-5",
    "CameraOwner": "",
    "Description": "",
    "DisplayLatitude": 47.463236,
    "DisplayLongitude": -122.26443,
    "ImageHeight": 249,
    "url": "https://images.wsdot.wa.gov/nw/005vc15453.jpg",
    "ImageWidth": 335,
    "IsActive": true,
    "OwnerURL": "",
    "Region": "NW",
    "SortOrder": 1000,
    "Title": "I-5 at MP 154.5: Southcenter"
  },
  {
    "id": 1402,
    "CameraLocation": "null|B|47.474234|-122.2715|155|I-5",
    "CameraOwner": "",
    "Description": "",
    "DisplayLatitude": 47.474234,
    "DisplayLongitude": -122.2715,
    "ImageHeight": 249,
    "url": "https://images.wsdot.wa.gov/nw/005vc15531.jpg",
    "ImageWidth": 335,
    "IsActive": true,
    "OwnerURL": "",
    "Region": "NW",
    "SortOrder": 1000,
    "Title": "I-5 at MP 155.3: S 144th St"
  },
  {
    "id": 1020,
    "CameraLocation": "null|B|47.469947|-122.268353|155|I-5",
    "CameraOwner": "",
    "Description": "",
    "DisplayLatitude": 47.469947,
    "DisplayLongitude": -122.268353,
    "ImageHeight": 249,
    "url": "https://images.wsdot.wa.gov/nw/005vc15591.jpg",
    "ImageWidth": 335,
    "IsActive": true,
    "OwnerURL": "",
    "Region": "NW",
    "SortOrder": 1000,
    "Title": "I-5 at MP 155.9: SR 599 Interchange"
  },
  {
    "id": 1021,
    "CameraLocation": "null|B|47.491137|-122.264274|156|I-5",
    "CameraOwner": "",
    "Description": "",
    "DisplayLatitude": 47.491137,
    "DisplayLongitude": -122.264274,
    "ImageHeight": 249,
    "url": "https://images.wsdot.wa.gov/nw/005vc15664.jpg",
    "ImageWidth": 335,
    "IsActive": true,
    "OwnerURL": "",
    "Region": "NW",
    "SortOrder": 1000,
    "Title": "I-5 at MP 156.6: Duwamish River"
  },
  {
    "id": 9274,
    "CameraLocation": "null|B|47.497506|-122.271634|157|I-5",
    "CameraOwner": "",
    "Description": "",
    "DisplayLatitude": 47.497506,
    "DisplayLongitude": -122.271634,
    "ImageHeight": 249,
    "url": "https://images.wsdot.wa.gov/nw/005vc15718.jpg",
    "ImageWidth": 335,
    "IsActive": true,
    "OwnerURL": "",
    "Region": "NW",
    "SortOrder": 1000,
    "Title": "I-5 at MP 157.1: MLK Jr Way S"
  },
  {
    "id": 9508,
    "CameraLocation": "null|B|47.499523|-122.273771|157|I-5",
    "CameraOwner": "",
    "Description": "",
    "DisplayLatitude": 47.499523,
    "DisplayLongitude": -122.273771,
    "ImageHeight": 249,
    "url": "https://images.wsdot.wa.gov/nw/005vc15735.jpg",
    "ImageWidth": 335,
    "IsActive": true,
    "OwnerURL": "",
    "Region": "NW",
    "SortOrder": 1000,
    "Title": "I-5 at MP 157.3: MLK Jr Way, N"
  },
  {
    "id": 9509,
    "CameraLocation": "null|B|47.505767|-122.279828|157|I-5",
    "CameraOwner": "",
    "Description": "",
    "DisplayLatitude": 47.505767,
    "DisplayLongitude": -122.279828,
    "ImageHeight": 249,
    "url": "https://images.wsdot.wa.gov/nw/005vc15785.jpg",
    "ImageWidth": 335,
    "IsActive": true,
    "OwnerURL": "",
    "Region": "NW",
    "SortOrder": 1000,
    "Title": "I-5 at MP 157.8: Boeing Access Rd, S"
  },
  {
    "id": 1022,
    "CameraLocation": "null|B|47.508346|-122.281796|158|I-5",
    "CameraOwner": "",
    "Description": "",
    "DisplayLatitude": 47.508346,
    "DisplayLongitude": -122.281796,
    "ImageHeight": 249,
    "url": "https://images.wsdot.wa.gov/nw/005vc15805.jpg",
    "ImageWidth": 335,
    "IsActive": true,
    "OwnerURL": "",
    "Region": "NW",
    "SortOrder": 1000,
    "Title": "I-5 at MP 158: Boeing Access Rd North"
  },
  {
    "id": 9510,
    "CameraLocation": "null|B|47.519045|-122.289227|158|I-5",
    "CameraOwner": "",
    "Description": "",
    "DisplayLatitude": 47.519045,
    "DisplayLongitude": -122.289227,
    "ImageHeight": 249,
    "url": "https://images.wsdot.wa.gov/nw/005vc15887.jpg",
    "ImageWidth": 335,
    "IsActive": true,
    "OwnerURL": "",
    "Region": "NW",
    "SortOrder": 1000,
    "Title": "I-5 at MP 158.8: S Benefit St"
  },
  {
    "id": 9511,
    "CameraLocation": "null|B|47.523662|-122.291139|159|I-5",
    "CameraOwner": "",
    "Description": "",
    "DisplayLatitude": 47.523662,
    "DisplayLongitude": -122.291139,
    "ImageHeight": 249,
    "url": "https://images.wsdot.wa.gov/nw/005vc15920.jpg",
    "ImageWidth": 335,
    "IsActive": true,
    "OwnerURL": "",
    "Region": "NW",
    "SortOrder": 1000,
    "Title": "I-5 at MP 159.2: S Henderson St"
  },
  {
    "id": 1023,
    "CameraLocation": "null|B|47.5306|-122.2938|159|I-5",
    "CameraOwner": "",
    "Description": "",
    "DisplayLatitude": 47.5306,
    "DisplayLongitude": -122.2938,
    "ImageHeight": 249,
    "url": "https://images.wsdot.wa.gov/nw/005vc15970.jpg",
    "ImageWidth": 335,
    "IsActive": true,
    "OwnerURL": "",
    "Region": "NW",
    "SortOrder": 1000,
    "Title": "I-5 at MP 159.7: S Rose St (Mid-Boeing Field)"
  },
  {
    "id": 9512,
    "CameraLocation": "null|B|47.534762|-122.295921|160|I-5",
    "CameraOwner": "",
    "Description": "",
    "DisplayLatitude": 47.534762,
    "DisplayLongitude": -122.295921,
    "ImageHeight": 249,
    "url": "https://images.wsdot.wa.gov/nw/005vc16000.jpg",
    "ImageWidth": 335,
    "IsActive": true,
    "OwnerURL": "",
    "Region": "NW",
    "SortOrder": 1000,
    "Title": "I-5 at MP 160: S Austin St"
  },
  {
    "id": 1403,
    "CameraLocation": "null|B|47.53535|-122.29685|160|I-5",
    "CameraOwner": "",
    "Description": "",
    "DisplayLatitude": 47.53535,
    "DisplayLongitude": -122.29685,
    "ImageHeight": 249,
    "url": "https://images.wsdot.wa.gov/nw/005vc16006.jpg",
    "ImageWidth": 335,
    "IsActive": true,
    "OwnerURL": "",
    "Region": "NW",
    "SortOrder": 1000,
    "Title": "I-5 at MP 160: S Webster St"
  },
  {
    "id": 9513,
    "CameraLocation": "null|B|47.54057|-122.302017|160|I-5",
    "CameraOwner": "",
    "Description": "",
    "DisplayLatitude": 47.54057,
    "DisplayLongitude": -122.302017,
    "ImageHeight": 249,
    "url": "https://images.wsdot.wa.gov/nw/005vc16049.jpg",
    "ImageWidth": 335,
    "IsActive": true,
    "OwnerURL": "",
    "Region": "NW",
    "SortOrder": 1000,
    "Title": "I-5 at MP 160.4: S Willow St"
  },
  {
    "id": 9514,
    "CameraLocation": "null|B|47.546128|-122.308131|160|I-5",
    "CameraOwner": "",
    "Description": "",
    "DisplayLatitude": 47.546128,
    "DisplayLongitude": -122.308131,
    "ImageHeight": 249,
    "url": "https://images.wsdot.wa.gov/nw/005vc16097.jpg",
    "ImageWidth": 335,
    "IsActive": true,
    "OwnerURL": "",
    "Region": "NW",
    "SortOrder": 1000,
    "Title": "I-5 at MP 160.9: S Graham St"
  },
  {
    "id": 1024,
    "CameraLocation": "null|B|47.548537|-122.31126|161|I-5",
    "CameraOwner": "",
    "Description": "",
    "DisplayLatitude": 47.548537,
    "DisplayLongitude": -122.31126,
    "ImageHeight": 249,
    "url": "https://images.wsdot.wa.gov/nw/005vc16123.jpg",
    "ImageWidth": 335,
    "IsActive": true,
    "OwnerURL": "",
    "Region": "NW",
    "SortOrder": 1000,
    "Title": "I-5 at MP 161.2: Albro Pl"
  },
  {
    "id": 9055,
    "CameraLocation": "null|B|47.557384|-122.320314|161|I-5",
    "CameraOwner": "",
    "Description": "",
    "DisplayLatitude": 47.557384,
    "DisplayLongitude": -122.320314,
    "ImageHeight": 249,
    "url": "https://images.wsdot.wa.gov/nw/005vc16195.jpg",
    "ImageWidth": 335,
    "IsActive": true,
    "OwnerURL": "",
    "Region": "NW",
    "SortOrder": 1000,
    "Title": "I-5 at MP 161.9: S Hudson St"
  },
  {
    "id": 9515,
    "CameraLocation": "null|B|47.558499|-122.320927|162|I-5",
    "CameraOwner": "",
    "Description": "",
    "DisplayLatitude": 47.558499,
    "DisplayLongitude": -122.320927,
    "ImageHeight": 249,
    "url": "https://images.wsdot.wa.gov/nw/005vc16204.jpg",
    "ImageWidth": 335,
    "IsActive": true,
    "OwnerURL": "",
    "Region": "NW",
    "SortOrder": 1000,
    "Title": "I-5 at MP 162: S Ferdinand St"
  },
  {
    "id": 9056,
    "CameraLocation": "null|B|47.558604|-122.320974|162|I-5",
    "CameraOwner": "",
    "Description": "",
    "DisplayLatitude": 47.558604,
    "DisplayLongitude": -122.320974,
    "ImageHeight": 249,
    "url": "https://images.wsdot.wa.gov/nw/005vc16237.jpg",
    "ImageWidth": 335,
    "IsActive": true,
    "OwnerURL": "",
    "Region": "NW",
    "SortOrder": 1000,
    "Title": "I-5 at MP 162.3: S. Oregon St"
  },
  {
    "id": 9355,
    "CameraLocation": "null|B|47.570437|-122.319961|162|I-5",
    "CameraOwner": "",
    "Description": "",
    "DisplayLatitude": 47.570437,
    "DisplayLongitude": -122.319961,
    "ImageHeight": 249,
    "url": "https://images.wsdot.wa.gov/nw/005vc16287.jpg",
    "ImageWidth": 335,
    "IsActive": true,
    "OwnerURL": "",
    "Region": "NW",
    "SortOrder": 1000,
    "Title": "I-5 at MP 162.8: S. Court St"
  },
  {
    "id": 1025,
    "CameraLocation": "null|B|47.571871|-122.32341|162|I-5",
    "CameraOwner": "",
    "Description": "",
    "DisplayLatitude": 47.571871,
    "DisplayLongitude": -122.32341,
    "ImageHeight": 249,
    "url": "https://images.wsdot.wa.gov/nw/005vc16297.jpg",
    "ImageWidth": 335,
    "IsActive": true,
    "OwnerURL": "",
    "Region": "NW",
    "SortOrder": 1000,
    "Title": "I-5 at MP 162.9: Spokane St"
  },
  {
    "id": 9356,
    "CameraLocation": "null|B|47.578787|-122.319016|163|I-5",
    "CameraOwner": "",
    "Description": "",
    "DisplayLatitude": 47.578787,
    "DisplayLongitude": -122.319016,
    "ImageHeight": 249,
    "url": "https://images.wsdot.wa.gov/nw/005vc16342.jpg",
    "ImageWidth": 335,
    "IsActive": true,
    "OwnerURL": "",
    "Region": "NW",
    "SortOrder": 1000,
    "Title": "I-5 at MP 163.4: S. Forest St"
  },
  {
    "id": 9516,
    "CameraLocation": "null|B|47.58353|-122.319798|163|I-5",
    "CameraOwner": "",
    "Description": "",
    "DisplayLatitude": 47.58353,
    "DisplayLongitude": -122.319798,
    "ImageHeight": 249,
    "url": "https://images.wsdot.wa.gov/nw/005vc16377.jpg",
    "ImageWidth": 335,
    "IsActive": true,
    "OwnerURL": "",
    "Region": "NW",
    "SortOrder": 1000,
    "Title": "I-5 at MP 163.7: S Walker St"
  },
  {
    "id": 1026,
    "CameraLocation": "null|B|47.58611|-122.319456|163|I-5",
    "CameraOwner": "",
    "Description": "",
    "DisplayLatitude": 47.58611,
    "DisplayLongitude": -122.319456,
    "ImageHeight": 249,
    "url": "https://images.wsdot.wa.gov/nw/005vc16396.jpg",
    "ImageWidth": 335,
    "IsActive": true,
    "OwnerURL": "",
    "Region": "NW",
    "SortOrder": 1000,
    "Title": "I-5 at MP 163.9: S Holgate St"
  },
  {
    "id": 9057,
    "CameraLocation": "null|B|47.592533|-122.320852|164|I-5",
    "CameraOwner": "",
    "Description": "",
    "DisplayLatitude": 47.592533,
    "DisplayLongitude": -122.320852,
    "ImageHeight": 249,
    "url": "https://images.wsdot.wa.gov/nw/005vc16440.jpg",
    "ImageWidth": 335,
    "IsActive": true,
    "OwnerURL": "",
    "Region": "NW",
    "SortOrder": 1000,
    "Title": "I-5 at MP 164.4: Judkins St"
  },
  {
    "id": 1027,
    "CameraLocation": "null|B|47.586164|-122.32005|164|I-5",
    "CameraOwner": "",
    "Description": "",
    "DisplayLatitude": 47.586164,
    "DisplayLongitude": -122.32005,
    "ImageHeight": 249,
    "url": "https://images.wsdot.wa.gov/nw/090vc00245.jpg",
    "ImageWidth": 335,
    "IsActive": true,
    "OwnerURL": "",
    "Region": "NW",
    "SortOrder": 1000,
    "Title": "I-5 at MP 164: I-90 Interchange (8th Ave S)"
  },
  {
    "id": 9517,
    "CameraLocation": "null|B|47.595963|-122.320234|164|I-5",
    "CameraOwner": "",
    "Description": "",
    "DisplayLatitude": 47.595963,
    "DisplayLongitude": -122.320234,
    "ImageHeight": 249,
    "url": "https://images.wsdot.wa.gov/nw/005vc16465.jpg",
    "ImageWidth": 335,
    "IsActive": true,
    "OwnerURL": "",
    "Region": "NW",
    "SortOrder": 1000,
    "Title": "I-5 at MP 164.6: S Dearborn St"
  },
  {
    "id": 1028,
    "CameraLocation": "null|B|47.6014|-122.3242|165|I-5",
    "CameraOwner": "",
    "Description": "",
    "DisplayLatitude": 47.6014,
    "DisplayLongitude": -122.3242,
    "ImageHeight": 249,
    "url": "https://images.wsdot.wa.gov/nw/005vc16508.jpg",
    "ImageWidth": 335,
    "IsActive": true,
    "OwnerURL": "",
    "Region": "NW",
    "SortOrder": 1000,
    "Title": "I-5 at MP 165: Yesler Way"
  },
  {
    "id": 9518,
    "CameraLocation": "null|B|47.605194|-122.328059|165|I-5",
    "CameraOwner": "",
    "Description": "",
    "DisplayLatitude": 47.605194,
    "DisplayLongitude": -122.328059,
    "ImageHeight": 249,
    "url": "https://images.wsdot.wa.gov/nw/005vc16540.jpg",
    "ImageWidth": 335,
    "IsActive": true,
    "OwnerURL": "",
    "Region": "NW",
    "SortOrder": 1000,
    "Title": "I-5 at MP 165.4: 5th Ave/Cherry"
  },
  {
    "id": 9519,
    "CameraLocation": "null|B|47.605762|-122.328782|165|I-5",
    "CameraOwner": "",
    "Description": "",
    "DisplayLatitude": 47.605762,
    "DisplayLongitude": -122.328782,
    "ImageHeight": 249,
    "url": "https://images.wsdot.wa.gov/nw/005vc16545.jpg",
    "ImageWidth": 335,
    "IsActive": true,
    "OwnerURL": "",
    "Region": "NW",
    "SortOrder": 1000,
    "Title": "I-5 at MP 165.4: Columbia St Express Lanes"
  },
  {
    "id": 9520,
    "CameraLocation": "null|B|47.606257|-122.328959|165|I-5",
    "CameraOwner": "",
    "Description": "",
    "DisplayLatitude": 47.606257,
    "DisplayLongitude": -122.328959,
    "ImageHeight": 249,
    "url": "https://images.wsdot.wa.gov/nw/005vc16547.jpg",
    "ImageWidth": 335,
    "IsActive": true,
    "OwnerURL": "",
    "Region": "NW",
    "SortOrder": 1000,
    "Title": "I-5 at MP 165.4: 5th Ave/Columbia"
  },
  {
    "id": 9521,
    "CameraLocation": "null|B|47.606585|-122.329243|165|I-5",
    "CameraOwner": "",
    "Description": "",
    "DisplayLatitude": 47.606585,
    "DisplayLongitude": -122.329243,
    "ImageHeight": 249,
    "url": "https://images.wsdot.wa.gov/nw/005vc16550.jpg",
    "ImageWidth": 335,
    "IsActive": true,
    "OwnerURL": "",
    "Region": "NW",
    "SortOrder": 1000,
    "Title": "I-5 at MP 165.5: Marion St"
  },
  {
    "id": 9522,
    "CameraLocation": "null|B|47.607183|-122.329831|165|I-5",
    "CameraOwner": "",
    "Description": "",
    "DisplayLatitude": 47.607183,
    "DisplayLongitude": -122.329831,
    "ImageHeight": 249,
    "url": "https://images.wsdot.wa.gov/nw/005vc16556.jpg",
    "ImageWidth": 335,
    "IsActive": true,
    "OwnerURL": "",
    "Region": "NW",
    "SortOrder": 1000,
    "Title": "I-5 at MP 165.5: Madison St Express Lanes"
  },
  {
    "id": 9523,
    "CameraLocation": "null|B|47.608251|-122.330516|165|I-5",
    "CameraOwner": "",
    "Description": "",
    "DisplayLatitude": 47.608251,
    "DisplayLongitude": -122.330516,
    "ImageHeight": 249,
    "url": "https://images.wsdot.wa.gov/nw/005vc16563.jpg",
    "ImageWidth": 335,
    "IsActive": true,
    "OwnerURL": "",
    "Region": "NW",
    "SortOrder": 1000,
    "Title": "I-5 at MP 165.6: Seneca St"
  },
  {
    "id": 9524,
    "CameraLocation": "null|B|47.608348|-122.330633|165|I-5",
    "CameraOwner": "",
    "Description": "",
    "DisplayLatitude": 47.608348,
    "DisplayLongitude": -122.330633,
    "ImageHeight": 249,
    "url": "https://images.wsdot.wa.gov/nw/005vc16565.jpg",
    "ImageWidth": 335,
    "IsActive": true,
    "OwnerURL": "",
    "Region": "NW",
    "SortOrder": 1000,
    "Title": "I-5 at MP 165.6: Seneca St Express Lanes"
  },
  {
    "id": 9525,
    "CameraLocation": "null|B|47.609238|-122.330911|165|I-5",
    "CameraOwner": "",
    "Description": "",
    "DisplayLatitude": 47.609238,
    "DisplayLongitude": -122.330911,
    "ImageHeight": 249,
    "url": "https://images.wsdot.wa.gov/nw/005vc16571.jpg",
    "ImageWidth": 335,
    "IsActive": true,
    "OwnerURL": "",
    "Region": "NW",
    "SortOrder": 1000,
    "Title": "I-5 at MP 165.7: University St, SB"
  },
  {
    "id": 9526,
    "CameraLocation": "null|B|47.609614|-122.330982|165|I-5",
    "CameraOwner": "",
    "Description": "",
    "DisplayLatitude": 47.609614,
    "DisplayLongitude": -122.330982,
    "ImageHeight": 249,
    "url": "https://images.wsdot.wa.gov/nw/005vc16574.jpg",
    "ImageWidth": 335,
    "IsActive": true,
    "OwnerURL": "",
    "Region": "NW",
    "SortOrder": 1000,
    "Title": "I-5 at MP 165.7: University St Ramp"
  },
  {
    "id": 9527,
    "CameraLocation": "null|B|47.610567|-122.330978|165|I-5",
    "CameraOwner": "",
    "Description": "",
    "DisplayLatitude": 47.610567,
    "DisplayLongitude": -122.330978,
    "ImageHeight": 249,
    "url": "https://images.wsdot.wa.gov/nw/005vc16580.jpg",
    "ImageWidth": 335,
    "IsActive": true,
    "OwnerURL": "",
    "Region": "NW",
    "SortOrder": 1000,
    "Title": "I-5 at MP 165.8: University St, NB"
  },
  {
    "id": 9528,
    "CameraLocation": "null|B|47.611605|-122.330735|165|I-5",
    "CameraOwner": "",
    "Description": "",
    "DisplayLatitude": 47.611605,
    "DisplayLongitude": -122.330735,
    "ImageHeight": 249,
    "url": "https://images.wsdot.wa.gov/nw/005vc16588.jpg",
    "ImageWidth": 335,
    "IsActive": true,
    "OwnerURL": "",
    "Region": "NW",
    "SortOrder": 1000,
    "Title": "I-5 at MP 165.8: Union St Express Lanes"
  },
  {
    "id": 9529,
    "CameraLocation": "null|B|47.612874|-122.330176|165|I-5",
    "CameraOwner": "",
    "Description": "",
    "DisplayLatitude": 47.612874,
    "DisplayLongitude": -122.330176,
    "ImageHeight": 249,
    "url": "https://images.wsdot.wa.gov/nw/005vc16596.jpg",
    "ImageWidth": 335,
    "IsActive": true,
    "OwnerURL": "",
    "Region": "NW",
    "SortOrder": 1000,
    "Title": "I-5 at MP 165.9: Pike St/9th Ave"
  },
  {
    "id": 9530,
    "CameraLocation": "null|B|47.613015|-122.330116|165|I-5",
    "CameraOwner": "",
    "Description": "",
    "DisplayLatitude": 47.613015,
    "DisplayLongitude": -122.330116,
    "ImageHeight": 249,
    "url": "https://images.wsdot.wa.gov/nw/005vc16597.jpg",
    "ImageWidth": 335,
    "IsActive": true,
    "OwnerURL": "",
    "Region": "NW",
    "SortOrder": 1000,
    "Title": "I-5 at MP 165.9: Pike St, SB"
  },
  {
    "id": 9531,
    "CameraLocation": "null|B|47.613153|-122.330065|165|I-5",
    "CameraOwner": "",
    "Description": "",
    "DisplayLatitude": 47.613153,
    "DisplayLongitude": -122.330065,
    "ImageHeight": 249,
    "url": "https://images.wsdot.wa.gov/nw/005vc16598.jpg",
    "ImageWidth": 335,
    "IsActive": true,
    "OwnerURL": "",
    "Region": "NW",
    "SortOrder": 1000,
    "Title": "I-5 at MP 165.9: Pike St, NB"
  },
  {
    "id": 9532,
    "CameraLocation": "null|B|47.61331|-122.330005|165|I-5",
    "CameraOwner": "",
    "Description": "",
    "DisplayLatitude": 47.61331,
    "DisplayLongitude": -122.330005,
    "ImageHeight": 249,
    "url": "https://images.wsdot.wa.gov/nw/005vc16599.jpg",
    "ImageWidth": 335,
    "IsActive": true,
    "OwnerURL": "",
    "Region": "NW",
    "SortOrder": 1000,
    "Title": "I-5 at MP 165.9: 9th Ave at Pike"
  },
  {
    "id": 9533,
    "CameraLocation": "null|B|47.61356|-122.32999|166|I-5",
    "CameraOwner": "",
    "Description": "",
    "DisplayLatitude": 47.61356,
    "DisplayLongitude": -122.32999,
    "ImageHeight": 249,
    "url": "https://images.wsdot.wa.gov/nw/005vc16602.jpg",
    "ImageWidth": 335,
    "IsActive": true,
    "OwnerURL": "",
    "Region": "NW",
    "SortOrder": 1000,
    "Title": "I-5 at MP 166: Pike St Express Lanes"
  },
  {
    "id": 1029,
    "CameraLocation": "null|B|47.614561|-122.329847|166|I-5",
    "CameraOwner": "",
    "Description": "",
    "DisplayLatitude": 47.614561,
    "DisplayLongitude": -122.329847,
    "ImageHeight": 249,
    "url": "https://images.wsdot.wa.gov/nw/005vc16607.jpg",
    "ImageWidth": 335,
    "IsActive": true,
    "OwnerURL": "",
    "Region": "NW",
    "SortOrder": 1000,
    "Title": "I-5 at MP 166: Pine St"
  },
  {
    "id": 9534,
    "CameraLocation": "null|B|47.614956|-122.329452|166|I-5",
    "CameraOwner": "",
    "Description": "",
    "DisplayLatitude": 47.614956,
    "DisplayLongitude": -122.329452,
    "ImageHeight": 249,
    "url": "https://images.wsdot.wa.gov/nw/005vc16612.jpg",
    "ImageWidth": 335,
    "IsActive": true,
    "OwnerURL": "",
    "Region": "NW",
    "SortOrder": 1000,
    "Title": "I-5 at MP 166.1: Pike Express Lanes Ramp"
  },
  {
    "id": 9535,
    "CameraLocation": "null|B|47.61764|-122.328475|166|I-5",
    "CameraOwner": "",
    "Description": "",
    "DisplayLatitude": 47.61764,
    "DisplayLongitude": -122.328475,
    "ImageHeight": 249,
    "url": "https://images.wsdot.wa.gov/nw/005vc16630.jpg",
    "ImageWidth": 335,
    "IsActive": true,
    "OwnerURL": "",
    "Region": "NW",
    "SortOrder": 1000,
    "Title": "I-5 at MP 166.3: Howell St"
  },
  {
    "id": 9366,
    "CameraLocation": "null|B|47.619673|-122.328209|166|I-5",
    "CameraOwner": "",
    "Description": "",
    "DisplayLatitude": 47.619673,
    "DisplayLongitude": -122.328209,
    "ImageHeight": 249,
    "url": "https://images.wsdot.wa.gov/nw/005vc16644.jpg",
    "ImageWidth": 335,
    "IsActive": true,
    "OwnerURL": "",
    "Region": "NW",
    "SortOrder": 1000,
    "Title": "I-5 at MP 166.4: John St Express Lanes"
  },
  {
    "id": 9365,
    "CameraLocation": "null|B|47.619816|-122.328206|166|I-5",
    "CameraOwner": "",
    "Description": "",
    "DisplayLatitude": 47.619816,
    "DisplayLongitude": -122.328206,
    "ImageHeight": 249,
    "url": "https://images.wsdot.wa.gov/nw/005vc16645.jpg",
    "ImageWidth": 335,
    "IsActive": true,
    "OwnerURL": "",
    "Region": "NW",
    "SortOrder": 1000,
    "Title": "I-5 at MP 166.4: Denny Way"
  },
  {
    "id": 9536,
    "CameraLocation": "null|B|47.619963|-122.328208|166|I-5",
    "CameraOwner": "",
    "Description": "",
    "DisplayLatitude": 47.619963,
    "DisplayLongitude": -122.328208,
    "ImageHeight": 249,
    "url": "https://images.wsdot.wa.gov/nw/005vc16646.jpg",
    "ImageWidth": 335,
    "IsActive": true,
    "OwnerURL": "",
    "Region": "NW",
    "SortOrder": 1000,
    "Title": "I-5 at MP 166.4: Stewart/Eastlake Ramp"
  },
  {
    "id": 9367,
    "CameraLocation": "null|B|47.624136|-122.328125|166|I-5",
    "CameraOwner": "",
    "Description": "",
    "DisplayLatitude": 47.624136,
    "DisplayLongitude": -122.328125,
    "ImageHeight": 249,
    "url": "https://images.wsdot.wa.gov/nw/005vc16675.jpg",
    "ImageWidth": 335,
    "IsActive": true,
    "OwnerURL": "",
    "Region": "NW",
    "SortOrder": 1000,
    "Title": "I-5 at MP 166.7: Mercer St Express Lanes"
  },
  {
    "id": 9537,
    "CameraLocation": "null|B|47.624705|-122.328134|166|I-5",
    "CameraOwner": "",
    "Description": "",
    "DisplayLatitude": 47.624705,
    "DisplayLongitude": -122.328134,
    "ImageHeight": 249,
    "url": "https://images.wsdot.wa.gov/nw/005vc16679.jpg",
    "ImageWidth": 335,
    "IsActive": true,
    "OwnerURL": "",
    "Region": "NW",
    "SortOrder": 1000,
    "Title": "I-5 at MP 166.7: Mercer St Ramps"
  },
  {
    "id": 9538,
    "CameraLocation": "null|B|47.625854|-122.32817|166|I-5",
    "CameraOwner": "",
    "Description": "",
    "DisplayLatitude": 47.625854,
    "DisplayLongitude": -122.32817,
    "ImageHeight": 249,
    "url": "https://images.wsdot.wa.gov/nw/005vc16687.jpg",
    "ImageWidth": 335,
    "IsActive": true,
    "OwnerURL": "",
    "Region": "NW",
    "SortOrder": 1000,
    "Title": "I-5 at MP 166.8: Mercer St NB Ramp"
  },
  {
    "id": 1030,
    "CameraLocation": "null|B|47.628|-122.3278|167|I-5",
    "CameraOwner": "",
    "Description": "",
    "DisplayLatitude": 47.628,
    "DisplayLongitude": -122.3278,
    "ImageHeight": 249,
    "url": "https://images.wsdot.wa.gov/nw/005vc16702.jpg",
    "ImageWidth": 335,
    "IsActive": true,
    "OwnerURL": "",
    "Region": "NW",
    "SortOrder": 1000,
    "Title": "I-5 at MP 167: Mercer St"
  },
  {
    "id": 9539,
    "CameraLocation": "null|B|47.628039|-122.328286|167|I-5",
    "CameraOwner": "",
    "Description": "",
    "DisplayLatitude": 47.628039,
    "DisplayLongitude": -122.328286,
    "ImageHeight": 249,
    "url": "https://images.wsdot.wa.gov/nw/005vc16703.jpg",
    "ImageWidth": 335,
    "IsActive": true,
    "OwnerURL": "",
    "Region": "NW",
    "SortOrder": 1000,
    "Title": "I-5 at MP 167: Lakeview Express Lanes"
  },
  {
    "id": 9540,
    "CameraLocation": "null|B|47.636019|-122.322751|167|I-5",
    "CameraOwner": "",
    "Description": "",
    "DisplayLatitude": 47.636019,
    "DisplayLongitude": -122.322751,
    "ImageHeight": 249,
    "url": "https://images.wsdot.wa.gov/nw/005vc16763.jpg",
    "ImageWidth": 335,
    "IsActive": true,
    "OwnerURL": "",
    "Region": "NW",
    "SortOrder": 1000,
    "Title": "I-5 at MP 167.6: Boylston Ave"
  },
  {
    "id": 1031,
    "CameraLocation": "null|B|47.6416|-122.3226|168|I-5",
    "CameraOwner": "",
    "Description": "",
    "DisplayLatitude": 47.6416,
    "DisplayLongitude": -122.3226,
    "ImageHeight": 249,
    "url": "https://images.wsdot.wa.gov/nw/005vc16802.jpg",
    "ImageWidth": 335,
    "IsActive": true,
    "OwnerURL": "",
    "Region": "NW",
    "SortOrder": 1000,
    "Title": "I-5 at MP 168: Roanoke St"
  },
  {
    "id": 9541,
    "CameraLocation": "null|B|47.641464|-122.322839|168|I-5",
    "CameraOwner": "",
    "Description": "",
    "DisplayLatitude": 47.641464,
    "DisplayLongitude": -122.322839,
    "ImageHeight": 249,
    "url": "https://images.wsdot.wa.gov/nw/005vc16803.jpg",
    "ImageWidth": 335,
    "IsActive": true,
    "OwnerURL": "",
    "Region": "NW",
    "SortOrder": 1000,
    "Title": "I-5 at MP 168: Roanoke St Express Lanes"
  },
  {
    "id": 9542,
    "CameraLocation": "null|B|47.649935|-122.322564|168|I-5",
    "CameraOwner": "",
    "Description": "",
    "DisplayLatitude": 47.649935,
    "DisplayLongitude": -122.322564,
    "ImageHeight": 249,
    "url": "https://images.wsdot.wa.gov/nw/005vc16859.jpg",
    "ImageWidth": 335,
    "IsActive": true,
    "OwnerURL": "",
    "Region": "NW",
    "SortOrder": 1000,
    "Title": "I-5 at MP 168.5: Eastlake Ave Express Lanes"
  },
  {
    "id": 9543,
    "CameraLocation": "null|B|47.653913|-122.322475|168|I-5",
    "CameraOwner": "",
    "Description": "",
    "DisplayLatitude": 47.653913,
    "DisplayLongitude": -122.322475,
    "ImageHeight": 249,
    "url": "https://images.wsdot.wa.gov/nw/005vc16886.jpg",
    "ImageWidth": 335,
    "IsActive": true,
    "OwnerURL": "",
    "Region": "NW",
    "SortOrder": 1000,
    "Title": "I-5 at MP 168.8: Ship Canal Express Lanes"
  },
  {
    "id": 9299,
    "CameraLocation": "null|B|47.654018|-122.32235|168|I-5",
    "CameraOwner": "",
    "Description": "",
    "DisplayLatitude": 47.654018,
    "DisplayLongitude": -122.32235,
    "ImageHeight": 249,
    "url": "https://images.wsdot.wa.gov/nw/005vc16887.jpg",
    "ImageWidth": 335,
    "IsActive": true,
    "OwnerURL": "",
    "Region": "NW",
    "SortOrder": 1000,
    "Title": "I-5 at MP 168.8: Ship Canal Bridge"
  },
  {
    "id": 9544,
    "CameraLocation": "null|B|47.656216|-122.322443|169|I-5",
    "CameraOwner": "",
    "Description": "",
    "DisplayLatitude": 47.656216,
    "DisplayLongitude": -122.322443,
    "ImageHeight": 249,
    "url": "https://images.wsdot.wa.gov/nw/005vc16902.jpg",
    "ImageWidth": 335,
    "IsActive": true,
    "OwnerURL": "",
    "Region": "NW",
    "SortOrder": 1000,
    "Title": "I-5 at MP 169: NE 40th St Express Lanes"
  },
  {
    "id": 9545,
    "CameraLocation": "null|B|47.657002|-122.322266|169|I-5",
    "CameraOwner": "",
    "Description": "",
    "DisplayLatitude": 47.657002,
    "DisplayLongitude": -122.322266,
    "ImageHeight": 249,
    "url": "https://images.wsdot.wa.gov/nw/005vc16908.jpg",
    "ImageWidth": 335,
    "IsActive": true,
    "OwnerURL": "",
    "Region": "NW",
    "SortOrder": 1000,
    "Title": "I-5 at MP 169: 7th Ave & 42nd"
  },
  {
    "id": 1406,
    "CameraLocation": "null|B|47.6585|-122.3221|169|I-5",
    "CameraOwner": "",
    "Description": "",
    "DisplayLatitude": 47.6585,
    "DisplayLongitude": -122.3221,
    "ImageHeight": 249,
    "url": "https://images.wsdot.wa.gov/nw/005vc16913.jpg",
    "ImageWidth": 335,
    "IsActive": true,
    "OwnerURL": "",
    "Region": "NW",
    "SortOrder": 1000,
    "Title": "I-5 at MP 169.1: NE 42nd St Ramp"
  },
  {
    "id": 1032,
    "CameraLocation": "null|B|47.661442|-122.321599|169|I-5",
    "CameraOwner": "",
    "Description": "",
    "DisplayLatitude": 47.661442,
    "DisplayLongitude": -122.321599,
    "ImageHeight": 249,
    "url": "https://images.wsdot.wa.gov/nw/005vc16939.jpg",
    "ImageWidth": 335,
    "IsActive": true,
    "OwnerURL": "",
    "Region": "NW",
    "SortOrder": 1000,
    "Title": "I-5 at MP 169.3: NE 45th St"
  },
  {
    "id": 9060,
    "CameraLocation": "null|B|47.665247|-122.321747|169|I-5",
    "CameraOwner": "",
    "Description": "",
    "DisplayLatitude": 47.665247,
    "DisplayLongitude": -122.321747,
    "ImageHeight": 249,
    "url": "https://images.wsdot.wa.gov/nw/005vc16965.jpg",
    "ImageWidth": 335,
    "IsActive": true,
    "OwnerURL": "",
    "Region": "NW",
    "SortOrder": 1000,
    "Title": "I-5 at MP 169.6: NE 50th St"
  },
  {
    "id": 9546,
    "CameraLocation": "null|B|47.672722|-122.321216|170|I-5",
    "CameraOwner": "",
    "Description": "",
    "DisplayLatitude": 47.672722,
    "DisplayLongitude": -122.321216,
    "ImageHeight": 249,
    "url": "https://images.wsdot.wa.gov/nw/005vc17018.jpg",
    "ImageWidth": 335,
    "IsActive": true,
    "OwnerURL": "",
    "Region": "NW",
    "SortOrder": 1000,
    "Title": "I-5 at MP 170.1: NE Ravenna Blvd"
  },
  {
    "id": 1033,
    "CameraLocation": "null|B|47.68299|-122.31942|170|I-5",
    "CameraOwner": "",
    "Description": "",
    "DisplayLatitude": 47.68299,
    "DisplayLongitude": -122.31942,
    "ImageHeight": 249,
    "url": "https://images.wsdot.wa.gov/nw/005vc17078.jpg",
    "ImageWidth": 335,
    "IsActive": true,
    "OwnerURL": "",
    "Region": "NW",
    "SortOrder": 1000,
    "Title": "I-5 at MP 170.7: Lake City Way"
  },
  {
    "id": 9401,
    "CameraLocation": "null|B|47.682181|-122.321053|170|I-5",
    "CameraOwner": "",
    "Description": "",
    "DisplayLatitude": 47.682181,
    "DisplayLongitude": -122.321053,
    "ImageHeight": 249,
    "url": "https://images.wsdot.wa.gov/nw/005vc17082.jpg",
    "ImageWidth": 335,
    "IsActive": true,
    "OwnerURL": "",
    "Region": "NW",
    "SortOrder": 1000,
    "Title": "I-5 at MP 170.8: Lake City Way Express Lanes"
  },
  {
    "id": 9400,
    "CameraLocation": "null|B|47.684518|-122.323106|171|I-5",
    "CameraOwner": "",
    "Description": "",
    "DisplayLatitude": 47.684518,
    "DisplayLongitude": -122.323106,
    "ImageHeight": 249,
    "url": "https://images.wsdot.wa.gov/nw/005vc17101.jpg",
    "ImageWidth": 335,
    "IsActive": true,
    "OwnerURL": "",
    "Region": "NW",
    "SortOrder": 1000,
    "Title": "I-5 at MP 171: NE 77th St"
  },
  {
    "id": 9547,
    "CameraLocation": "null|B|47.686794|-122.326273|171|I-5",
    "CameraOwner": "",
    "Description": "",
    "DisplayLatitude": 47.686794,
    "DisplayLongitude": -122.326273,
    "ImageHeight": 249,
    "url": "https://images.wsdot.wa.gov/nw/005vc17124.jpg",
    "ImageWidth": 335,
    "IsActive": true,
    "OwnerURL": "",
    "Region": "NW",
    "SortOrder": 1000,
    "Title": "I-5 at MP 171.2: NE 80th St Express Lanes"
  },
  {
    "id": 1034,
    "CameraLocation": "null|B|47.691656|-122.32988|171|I-5",
    "CameraOwner": "",
    "Description": "",
    "DisplayLatitude": 47.691656,
    "DisplayLongitude": -122.32988,
    "ImageHeight": 249,
    "url": "https://images.wsdot.wa.gov/nw/005vc17153.jpg",
    "ImageWidth": 335,
    "IsActive": true,
    "OwnerURL": "",
    "Region": "NW",
    "SortOrder": 1000,
    "Title": "I-5 at MP 171.5: NE 85th St"
  },
  {
    "id": 9548,
    "CameraLocation": "null|B|47.696185|-122.329045|171|I-5",
    "CameraOwner": "",
    "Description": "",
    "DisplayLatitude": 47.696185,
    "DisplayLongitude": -122.329045,
    "ImageHeight": 249,
    "url": "https://images.wsdot.wa.gov/nw/005vc17191.jpg",
    "ImageWidth": 335,
    "IsActive": true,
    "OwnerURL": "",
    "Region": "NW",
    "SortOrder": 1000,
    "Title": "I-5 at MP 171.9: N 92nd St"
  },
  {
    "id": 9549,
    "CameraLocation": "null|B|47.702926|-122.329854|172|I-5",
    "CameraOwner": "",
    "Description": "",
    "DisplayLatitude": 47.702926,
    "DisplayLongitude": -122.329854,
    "ImageHeight": 249,
    "url": "https://images.wsdot.wa.gov/nw/005vc17240.jpg",
    "ImageWidth": 335,
    "IsActive": true,
    "OwnerURL": "",
    "Region": "NW",
    "SortOrder": 1000,
    "Title": "I-5 at MP 172.4: NE 103rd Express Lanes Ramp"
  },
  {
    "id": 9550,
    "CameraLocation": "null|B|47.703776|-122.329467|172|I-5",
    "CameraOwner": "",
    "Description": "",
    "DisplayLatitude": 47.703776,
    "DisplayLongitude": -122.329467,
    "ImageHeight": 249,
    "url": "https://images.wsdot.wa.gov/nw/005vc17245.jpg",
    "ImageWidth": 335,
    "IsActive": true,
    "OwnerURL": "",
    "Region": "NW",
    "SortOrder": 1000,
    "Title": "I-5 at MP 172.4: 1st Ave & 103rd"
  },
  {
    "id": 1409,
    "CameraLocation": "null|B|47.7068|-122.3297|172|I-5",
    "CameraOwner": "",
    "Description": "",
    "DisplayLatitude": 47.7068,
    "DisplayLongitude": -122.3297,
    "ImageHeight": 249,
    "url": "https://images.wsdot.wa.gov/nw/005vc17263.jpg",
    "ImageWidth": 335,
    "IsActive": true,
    "OwnerURL": "",
    "Region": "NW",
    "SortOrder": 1000,
    "Title": "I-5 at MP 172.6: NE 107th St"
  },
  {
    "id": 1035,
    "CameraLocation": "null|B|47.708662|-122.329778|172|I-5",
    "CameraOwner": "",
    "Description": "",
    "DisplayLatitude": 47.708662,
    "DisplayLongitude": -122.329778,
    "ImageHeight": 249,
    "url": "https://images.wsdot.wa.gov/nw/005vc17277.jpg",
    "ImageWidth": 335,
    "IsActive": true,
    "OwnerURL": "",
    "Region": "NW",
    "SortOrder": 1000,
    "Title": "I-5 at MP 172.7: N Northgate Way"
  },
  {
    "id": 9551,
    "CameraLocation": "null|B|47.713621|-122.327144|173|I-5",
    "CameraOwner": "",
    "Description": "",
    "DisplayLatitude": 47.713621,
    "DisplayLongitude": -122.327144,
    "ImageHeight": 249,
    "url": "https://images.wsdot.wa.gov/nw/005vc17315.jpg",
    "ImageWidth": 335,
    "IsActive": true,
    "OwnerURL": "",
    "Region": "NW",
    "SortOrder": 1000,
    "Title": "I-5 at MP 173.1: NE 117th St"
  },
  {
    "id": 9552,
    "CameraLocation": "null|B|47.71665|-122.324898|173|I-5",
    "CameraOwner": "",
    "Description": "",
    "DisplayLatitude": 47.71665,
    "DisplayLongitude": -122.324898,
    "ImageHeight": 249,
    "url": "https://images.wsdot.wa.gov/nw/005vc17338.jpg",
    "ImageWidth": 335,
    "IsActive": true,
    "OwnerURL": "",
    "Region": "NW",
    "SortOrder": 1000,
    "Title": "I-5 at MP 173.3: NE 120th St"
  },
  {
    "id": 1411,
    "CameraLocation": "null|B|47.723235|-122.323784|173|I-5",
    "CameraOwner": "",
    "Description": "",
    "DisplayLatitude": 47.723235,
    "DisplayLongitude": -122.323784,
    "ImageHeight": 249,
    "url": "https://images.wsdot.wa.gov/nw/005vc17386.jpg",
    "ImageWidth": 335,
    "IsActive": true,
    "OwnerURL": "",
    "Region": "NW",
    "SortOrder": 1000,
    "Title": "I-5 at MP 173.8: NE 130th St"
  },
  {
    "id": 1036,
    "CameraLocation": "null|B|47.73425|-122.32459|174|I-5",
    "CameraOwner": "",
    "Description": "",
    "DisplayLatitude": 47.73425,
    "DisplayLongitude": -122.32459,
    "ImageHeight": 249,
    "url": "https://images.wsdot.wa.gov/nw/005vc17461.jpg",
    "ImageWidth": 335,
    "IsActive": true,
    "OwnerURL": "",
    "Region": "NW",
    "SortOrder": 1000,
    "Title": "I-5 at MP 174.6: NE 145th St"
  },
  {
    "id": 9553,
    "CameraLocation": "null|B|47.746899|-122.329089|175|I-5",
    "CameraOwner": "",
    "Description": "",
    "DisplayLatitude": 47.746899,
    "DisplayLongitude": -122.329089,
    "ImageHeight": 249,
    "url": "https://images.wsdot.wa.gov/nw/005vc17552.jpg",
    "ImageWidth": 335,
    "IsActive": true,
    "OwnerURL": "",
    "Region": "NW",
    "SortOrder": 1000,
    "Title": "I-5 at MP 175.5: N Metro Base"
  },
  {
    "id": 1037,
    "CameraLocation": "null|B|47.754417|-122.329977|176|I-5",
    "CameraOwner": "",
    "Description": "",
    "DisplayLatitude": 47.754417,
    "DisplayLongitude": -122.329977,
    "ImageHeight": 209,
    "url": "https://images.wsdot.wa.gov/nw/005vc17603.jpg",
    "ImageWidth": 335,
    "IsActive": true,
    "OwnerURL": "",
    "Region": "NW",
    "SortOrder": 1000,
    "Title": "I-5 at MP 176: NE 175th St"
  },
  {
    "id": 9554,
    "CameraLocation": "null|B|47.757568|-122.328154|176|I-5",
    "CameraOwner": "",
    "Description": "",
    "DisplayLatitude": 47.757568,
    "DisplayLongitude": -122.328154,
    "ImageHeight": 249,
    "url": "https://images.wsdot.wa.gov/nw/005vc17627.jpg",
    "ImageWidth": 335,
    "IsActive": true,
    "OwnerURL": "",
    "Region": "NW",
    "SortOrder": 1000,
    "Title": "I-5 at MP 176.2: NE 175th St, NB"
  }
  ,
  {
    "id": 1038,
    "CameraLocation": "null|B|47.7701|-122.3216|177|I-5",
    "CameraOwner": "",
    "Description": "",
    "DisplayLatitude": 47.7701,
    "DisplayLongitude": -122.3216,
    "ImageHeight": 249,
    "url": "https://images.wsdot.wa.gov/nw/005vc17722.jpg",
    "ImageWidth": 335,
    "IsActive": true,
    "OwnerURL": "",
    "Region": "NW",
    "SortOrder": 1000,
    "Title": "I-5 at MP 177.2: NE 195th St"
  },
  {
    "id": 9555,
    "CameraLocation": "null|B|47.777622|-122.317665|177|I-5",
    "CameraOwner": "",
    "Description": "",
    "DisplayLatitude": 47.777622,
    "DisplayLongitude": -122.317665,
    "ImageHeight": 209,
    "url": "https://images.wsdot.wa.gov/nw/005vc17776.jpg",
    "ImageWidth": 335,
    "IsActive": true,
    "OwnerURL": "",
    "Region": "NW",
    "SortOrder": 1000,
    "Title": "I-5 at MP 177.7: NE 205th St"
  },
  {
    "id": 1039,
    "CameraLocation": "null|B|47.78526|-122.314986|178|I-5",
    "CameraOwner": "",
    "Description": "",
    "DisplayLatitude": 47.78526,
    "DisplayLongitude": -122.314986,
    "ImageHeight": 249,
    "url": "https://images.wsdot.wa.gov/nw/005vc17828.jpg",
    "ImageWidth": 335,
    "IsActive": true,
    "OwnerURL": "",
    "Region": "NW",
    "SortOrder": 1000,
    "Title": "I-5 at MP 178.2: 236th St SW"
  },
  {
    "id": 9556,
    "CameraLocation": "null|B|47.791681|-122.316093|178|I-5",
    "CameraOwner": "",
    "Description": "",
    "DisplayLatitude": 47.791681,
    "DisplayLongitude": -122.316093,
    "ImageHeight": 249,
    "url": "https://images.wsdot.wa.gov/nw/005vc17874.jpg",
    "ImageWidth": 335,
    "IsActive": true,
    "OwnerURL": "",
    "Region": "NW",
    "SortOrder": 1000,
    "Title": "I-5 at MP 178.7: 228th St SW"
  },
  {
    "id": 1040,
    "CameraLocation": "null|B|47.7994|-122.3149|179|I-5",
    "CameraOwner": "",
    "Description": "",
    "DisplayLatitude": 47.7994,
    "DisplayLongitude": -122.3149,
    "ImageHeight": 249,
    "url": "https://images.wsdot.wa.gov/nw/005vc17928.jpg",
    "ImageWidth": 335,
    "IsActive": true,
    "OwnerURL": "",
    "Region": "NW",
    "SortOrder": 1000,
    "Title": "I-5 at MP 179.2: 220th St SW"
  },
  {
    "id": 9557,
    "CameraLocation": "null|B|47.804141|-122.310179|179|I-5",
    "CameraOwner": "",
    "Description": "",
    "DisplayLatitude": 47.804141,
    "DisplayLongitude": -122.310179,
    "ImageHeight": 249,
    "url": "https://images.wsdot.wa.gov/nw/005vc17966.jpg",
    "ImageWidth": 335,
    "IsActive": true,
    "OwnerURL": "",
    "Region": "NW",
    "SortOrder": 1000,
    "Title": "I-5 at MP 179.6: 212th St SW"
  },
  {
    "id": 1338,
    "CameraLocation": "null|B|47.813019|-122.293591|180|I-5",
    "CameraOwner": "",
    "Description": "",
    "DisplayLatitude": 47.813019,
    "DisplayLongitude": -122.293591,
    "ImageHeight": 249,
    "url": "https://images.wsdot.wa.gov/nw/005vc18065.jpg",
    "ImageWidth": 335,
    "IsActive": true,
    "OwnerURL": "",
    "Region": "NW",
    "SortOrder": 1000,
    "Title": "I-5 at MP 180.6: 44th Ave W"
  },
  {
    "id": 9447,
    "CameraLocation": "null|B|47.821121|-122.278395|181|I-5",
    "CameraOwner": "",
    "Description": "",
    "DisplayLatitude": 47.821121,
    "DisplayLongitude": -122.278395,
    "ImageHeight": 249,
    "url": "https://images.wsdot.wa.gov/nw/005vc18155.jpg",
    "ImageWidth": 335,
    "IsActive": true,
    "OwnerURL": "",
    "Region": "NW",
    "SortOrder": 1000,
    "Title": "I-5 at MP 181.5: 196th St SW"
  },
  {
    "id": 9558,
    "CameraLocation": "null|B|47.829975|-122.263078|182|I-5",
    "CameraOwner": "",
    "Description": "",
    "DisplayLatitude": 47.829975,
    "DisplayLongitude": -122.263078,
    "ImageHeight": 249,
    "url": "https://images.wsdot.wa.gov/nw/005vc18250.jpg",
    "ImageWidth": 335,
    "IsActive": true,
    "OwnerURL": "",
    "Region": "NW",
    "SortOrder": 1000,
    "Title": "I-5 at MP 182.5: 186th St SW"
  },
  {
    "id": 9559,
    "CameraLocation": "null|B|47.831554|-122.262025|182|I-5",
    "CameraOwner": "",
    "Description": "",
    "DisplayLatitude": 47.831554,
    "DisplayLongitude": -122.262025,
    "ImageHeight": 249,
    "url": "https://images.wsdot.wa.gov/nw/005vc18262.jpg",
    "ImageWidth": 335,
    "IsActive": true,
    "OwnerURL": "",
    "Region": "NW",
    "SortOrder": 1000,
    "Title": "I-5 at MP 182.6: Alderwood"
  },
  {
    "id": 1042,
    "CameraLocation": "null|B|47.836837|-122.260919|183|I-5",
    "CameraOwner": "",
    "Description": "",
    "DisplayLatitude": 47.836837,
    "DisplayLongitude": -122.260919,
    "ImageHeight": 209,
    "url": "https://images.wsdot.wa.gov/nw/405vc03022.jpg",
    "ImageWidth": 335,
    "IsActive": true,
    "OwnerURL": "",
    "Region": "NW",
    "SortOrder": 1000,
    "Title": "I-5 at MP 183: I-405 Interchange (Alderwood)"
  },
  {
    "id": 1412,
    "CameraLocation": "null|B|47.8497|-122.2579|183|I-5",
    "CameraOwner": "",
    "Description": "",
    "DisplayLatitude": 47.8497,
    "DisplayLongitude": -122.2579,
    "ImageHeight": 249,
    "url": "https://images.wsdot.wa.gov/nw/005vc18389.jpg",
    "ImageWidth": 335,
    "IsActive": true,
    "OwnerURL": "",
    "Region": "NW",
    "SortOrder": 1000,
    "Title": "I-5 at MP 183.8: 164th St, Ramp"
  },
  {
    "id": 1043,
    "CameraLocation": "null|B|47.849327|-122.257759|183|I-5",
    "CameraOwner": "",
    "Description": "",
    "DisplayLatitude": 47.849327,
    "DisplayLongitude": -122.257759,
    "ImageHeight": 249,
    "url": "https://images.wsdot.wa.gov/nw/005vc18391.jpg",
    "ImageWidth": 335,
    "IsActive": true,
    "OwnerURL": "",
    "Region": "NW",
    "SortOrder": 1000,
    "Title": "I-5 at MP 183.9: 164th St SW"
  },
  {
    "id": 9068,
    "CameraLocation": "null|B|47.853052|-122.255515|184|I-5",
    "CameraOwner": "",
    "Description": "",
    "DisplayLatitude": 47.853052,
    "DisplayLongitude": -122.255515,
    "ImageHeight": 249,
    "url": "https://images.wsdot.wa.gov/nw/005vc18414.jpg",
    "ImageWidth": 335,
    "IsActive": true,
    "OwnerURL": "",
    "Region": "NW",
    "SortOrder": 1000,
    "Title": "I-5 at MP 184.1: Ash Way"
  },
  {
    "id": 1044,
    "CameraLocation": "null|B|47.864736|-122.246159|185|I-5",
    "CameraOwner": "",
    "Description": "",
    "DisplayLatitude": 47.864736,
    "DisplayLongitude": -122.246159,
    "ImageHeight": 249,
    "url": "https://images.wsdot.wa.gov/nw/005vc18507.jpg",
    "ImageWidth": 335,
    "IsActive": true,
    "OwnerURL": "",
    "Region": "NW",
    "SortOrder": 1000,
    "Title": "I-5 at MP 185: 148th St SW"
  },
  {
    "id": 9069,
    "CameraLocation": "null|B|47.874488|-122.242482|185|I-5",
    "CameraOwner": "",
    "Description": "",
    "DisplayLatitude": 47.874488,
    "DisplayLongitude": -122.242482,
    "ImageHeight": 249,
    "url": "https://images.wsdot.wa.gov/nw/005vc18577.jpg",
    "ImageWidth": 335,
    "IsActive": true,
    "OwnerURL": "",
    "Region": "NW",
    "SortOrder": 1000,
    "Title": "I-5 at MP 185.7: 134th St SW"
  },
  {
    "id": 1045,
    "CameraLocation": "null|B|47.88247|-122.233522|186|I-5",
    "CameraOwner": "",
    "Description": "",
    "DisplayLatitude": 47.88247,
    "DisplayLongitude": -122.233522,
    "ImageHeight": 249,
    "url": "https://images.wsdot.wa.gov/nw/005vc18648.jpg",
    "ImageWidth": 335,
    "IsActive": true,
    "OwnerURL": "",
    "Region": "NW",
    "SortOrder": 1000,
    "Title": "I-5 at MP 186.4: 128th St SW"
  },
  {
    "id": 1413,
    "CameraLocation": "null|B|47.8909|-122.2214|187|I-5",
    "CameraOwner": "",
    "Description": "",
    "DisplayLatitude": 47.8909,
    "DisplayLongitude": -122.2214,
    "ImageHeight": 249,
    "url": "https://images.wsdot.wa.gov/nw/005vc18726.jpg",
    "ImageWidth": 335,
    "IsActive": true,
    "OwnerURL": "",
    "Region": "NW",
    "SortOrder": 1000,
    "Title": "I-5 at MP 187.2: 118th St SW"
  },
  {
    "id": 1046,
    "CameraLocation": "null|B|47.888861|-122.22414|187|I-5",
    "CameraOwner": "",
    "Description": "",
    "DisplayLatitude": 47.888861,
    "DisplayLongitude": -122.22414,
    "ImageHeight": 249,
    "url": "https://images.wsdot.wa.gov/nw/005vc18748.jpg",
    "ImageWidth": 335,
    "IsActive": true,
    "OwnerURL": "",
    "Region": "NW",
    "SortOrder": 1000,
    "Title": "I-5 at MP 187.4: 112th St SW, SB"
  },
  {
    "id": 1047,
    "CameraLocation": "null|B|47.8996|-122.2131|187|I-5",
    "CameraOwner": "",
    "Description": "",
    "DisplayLatitude": 47.8996,
    "DisplayLongitude": -122.2131,
    "ImageHeight": 209,
    "url": "https://images.wsdot.wa.gov/nw/005vc18797.jpg",
    "ImageWidth": 335,
    "IsActive": true,
    "OwnerURL": "",
    "Region": "NW",
    "SortOrder": 1000,
    "Title": "I-5 at MP 187.9: 112th St SW, NB"
  },
  {
    "id": 9070,
    "CameraLocation": "null|B|47.906638|-122.211064|188|I-5",
    "CameraOwner": "",
    "Description": "",
    "DisplayLatitude": 47.906638,
    "DisplayLongitude": -122.211064,
    "ImageHeight": 249,
    "url": "https://images.wsdot.wa.gov/nw/005vc18848.jpg",
    "ImageWidth": 335,
    "IsActive": true,
    "OwnerURL": "",
    "Region": "NW",
    "SortOrder": 1000,
    "Title": "I-5 at MP 188.4: 106th St SW"
  },
  {
    "id": 1416,
    "CameraLocation": "null|B|47.91644|-122.207477|189|I-5",
    "CameraOwner": "",
    "Description": "",
    "DisplayLatitude": 47.91644,
    "DisplayLongitude": -122.207477,
    "ImageHeight": 249,
    "url": "https://images.wsdot.wa.gov/nw/005vc18918.jpg",
    "ImageWidth": 335,
    "IsActive": true,
    "OwnerURL": "",
    "Region": "NW",
    "SortOrder": 1000,
    "Title": "I-5 at MP 189.1: Everett Mall Way"
  },
  {
    "id": 1048,
    "CameraLocation": "null|B|47.919|-122.2064|189|I-5",
    "CameraOwner": "",
    "Description": "",
    "DisplayLatitude": 47.919,
    "DisplayLongitude": -122.2064,
    "ImageHeight": 249,
    "url": "https://images.wsdot.wa.gov/nw/005vc18935.jpg",
    "ImageWidth": 335,
    "IsActive": true,
    "OwnerURL": "",
    "Region": "NW",
    "SortOrder": 1000,
    "Title": "I-5 at MP 189.3: SR 526 Interchange"
  },
  {
    "id": 1417,
    "CameraLocation": "null|B|47.91998|-122.205906|189|I-5",
    "CameraOwner": "",
    "Description": "",
    "DisplayLatitude": 47.91998,
    "DisplayLongitude": -122.205906,
    "ImageHeight": 249,
    "url": "https://images.wsdot.wa.gov/nw/005vc18943.jpg",
    "ImageWidth": 335,
    "IsActive": true,
    "OwnerURL": "",
    "Region": "NW",
    "SortOrder": 1000,
    "Title": "I-5 at MP 189.4: Broadway SB Ramp"
  },
  {
    "id": 1418,
    "CameraLocation": "null|B|47.926762|-122.203059|189|I-5",
    "CameraOwner": "",
    "Description": "",
    "DisplayLatitude": 47.926762,
    "DisplayLongitude": -122.203059,
    "ImageHeight": 249,
    "url": "https://images.wsdot.wa.gov/nw/005vc18997.jpg",
    "ImageWidth": 335,
    "IsActive": true,
    "OwnerURL": "",
    "Region": "NW",
    "SortOrder": 1000,
    "Title": "I-5 at MP 189.9: 77th St SE"
  },
  {
    "id": 1419,
    "CameraLocation": "null|B|47.931853|-122.19627|190|I-5",
    "CameraOwner": "",
    "Description": "",
    "DisplayLatitude": 47.931853,
    "DisplayLongitude": -122.19627,
    "ImageHeight": 249,
    "url": "https://images.wsdot.wa.gov/nw/005vc19039.jpg",
    "ImageWidth": 335,
    "IsActive": true,
    "OwnerURL": "",
    "Region": "NW",
    "SortOrder": 1000,
    "Title": "I-5 at MP 190.3: 73rd St SE, SB"
  },
  {
    "id": 1420,
    "CameraLocation": "null|B|47.9323|-122.1965|190|I-5",
    "CameraOwner": "",
    "Description": "",
    "DisplayLatitude": 47.9323,
    "DisplayLongitude": -122.1965,
    "ImageHeight": 249,
    "url": "https://images.wsdot.wa.gov/nw/005vc19041.jpg",
    "ImageWidth": 335,
    "IsActive": true,
    "OwnerURL": "",
    "Region": "NW",
    "SortOrder": 1000,
    "Title": "I-5 at MP 190.4: 73rd St SE, NB"
  },
  {
    "id": 1421,
    "CameraLocation": "null|B|47.942813|-122.197143|191|I-5",
    "CameraOwner": "",
    "Description": "",
    "DisplayLatitude": 47.942813,
    "DisplayLongitude": -122.197143,
    "ImageHeight": 249,
    "url": "https://images.wsdot.wa.gov/nw/005vc19115.jpg",
    "ImageWidth": 335,
    "IsActive": true,
    "OwnerURL": "",
    "Region": "NW",
    "SortOrder": 1000,
    "Title": "I-5 at MP 191.1: 61st St SE, NB"
  },
  {
    "id": 1422,
    "CameraLocation": "null|B|47.943519|-122.196904|191|I-5",
    "CameraOwner": "",
    "Description": "",
    "DisplayLatitude": 47.943519,
    "DisplayLongitude": -122.196904,
    "ImageHeight": 249,
    "url": "https://images.wsdot.wa.gov/nw/005vc19120.jpg",
    "ImageWidth": 335,
    "IsActive": true,
    "OwnerURL": "",
    "Region": "NW",
    "SortOrder": 1000,
    "Title": "I-5 at MP 191.2: 60th St SE, SB"
  },
  {
    "id": 1423,
    "CameraLocation": "null|B|47.9509|-122.199|191|I-5",
    "CameraOwner": "",
    "Description": "",
    "DisplayLatitude": 47.9509,
    "DisplayLongitude": -122.199,
    "ImageHeight": 249,
    "url": "https://images.wsdot.wa.gov/nw/005vc19169.jpg",
    "ImageWidth": 335,
    "IsActive": true,
    "OwnerURL": "",
    "Region": "NW",
    "SortOrder": 1000,
    "Title": "I-5 at MP 191.6: 52nd St SE"
  },
  {
    "id": 1424,
    "CameraLocation": "null|B|47.954721|-122.199223|191|I-5",
    "CameraOwner": "",
    "Description": "",
    "DisplayLatitude": 47.954721,
    "DisplayLongitude": -122.199223,
    "ImageHeight": 249,
    "url": "https://images.wsdot.wa.gov/nw/005vc19195.jpg",
    "ImageWidth": 335,
    "IsActive": true,
    "OwnerURL": "",
    "Region": "NW",
    "SortOrder": 1000,
    "Title": "I-5 at MP 191.9: 47th St SE"
  },
  {
    "id": 1425,
    "CameraLocation": "null|B|47.959895|-122.19952|192|I-5",
    "CameraOwner": "",
    "Description": "",
    "DisplayLatitude": 47.959895,
    "DisplayLongitude": -122.19952,
    "ImageHeight": 249,
    "url": "https://images.wsdot.wa.gov/nw/005vc19234.jpg",
    "ImageWidth": 335,
    "IsActive": true,
    "OwnerURL": "",
    "Region": "NW",
    "SortOrder": 1000,
    "Title": "I-5 at MP 192.3: 43rd St SE"
  },
  {
    "id": 1426,
    "CameraLocation": "null|B|47.964481|-122.19902|192|I-5",
    "CameraOwner": "",
    "Description": "",
    "DisplayLatitude": 47.964481,
    "DisplayLongitude": -122.19902,
    "ImageHeight": 249,
    "url": "https://images.wsdot.wa.gov/nw/005vc19267.jpg",
    "ImageWidth": 335,
    "IsActive": true,
    "OwnerURL": "",
    "Region": "NW",
    "SortOrder": 1000,
    "Title": "I-5 at MP 192.6: 41st St"
  },
  {
    "id": 1427,
    "CameraLocation": "null|B|47.956425|-122.199567|192|I-5",
    "CameraOwner": "",
    "Description": "",
    "DisplayLatitude": 47.956425,
    "DisplayLongitude": -122.199567,
    "ImageHeight": 249,
    "url": "https://images.wsdot.wa.gov/nw/005vc19273.jpg",
    "ImageWidth": 335,
    "IsActive": true,
    "OwnerURL": "",
    "Region": "NW",
    "SortOrder": 1000,
    "Title": "I-5 at MP 192.7: 40th St"
  },
  {
    "id": 1428,
    "CameraLocation": "null|B|47.9693|-122.1967|193|I-5",
    "CameraOwner": "",
    "Description": "",
    "DisplayLatitude": 47.9693,
    "DisplayLongitude": -122.1967,
    "ImageHeight": 249,
    "url": "https://images.wsdot.wa.gov/nw/005vc19303.jpg",
    "ImageWidth": 335,
    "IsActive": true,
    "OwnerURL": "",
    "Region": "NW",
    "SortOrder": 1000,
    "Title": "I-5 at MP 193: 36th St"
  },
  {
    "id": 1429,
    "CameraLocation": "null|B|47.9756|-122.1909|193|I-5",
    "CameraOwner": "",
    "Description": "",
    "DisplayLatitude": 47.9756,
    "DisplayLongitude": -122.1909,
    "ImageHeight": 249,
    "url": "https://images.wsdot.wa.gov/nw/005vc19357.jpg",
    "ImageWidth": 335,
    "IsActive": true,
    "OwnerURL": "",
    "Region": "NW",
    "SortOrder": 1000,
    "Title": "I-5 at MP 193.5: Pacific Ave"
  },
  {
    "id": 9071,
    "CameraLocation": "null|B|47.980178|-122.188558|193|I-5",
    "CameraOwner": "",
    "Description": "",
    "DisplayLatitude": 47.980178,
    "DisplayLongitude": -122.188558,
    "ImageHeight": 249,
    "url": "https://images.wsdot.wa.gov/nw/005vc19389.jpg",
    "ImageWidth": 335,
    "IsActive": true,
    "OwnerURL": "",
    "Region": "NW",
    "SortOrder": 1000,
    "Title": "I-5 at MP 193.9: US 2 Interchange"
  },
  {
    "id": 1430,
    "CameraLocation": "null|B|47.982032|-122.186232|194|I-5",
    "CameraOwner": "",
    "Description": "",
    "DisplayLatitude": 47.982032,
    "DisplayLongitude": -122.186232,
    "ImageHeight": 249,
    "url": "https://images.wsdot.wa.gov/nw/005vc19406.jpg",
    "ImageWidth": 335,
    "IsActive": true,
    "OwnerURL": "",
    "Region": "NW",
    "SortOrder": 1000,
    "Title": "I-5 at MP 194: Everett Ave"
  },
  {
    "id": 1431,
    "CameraLocation": "null|B|47.990392|-122.182587|194|I-5",
    "CameraOwner": "",
    "Description": "",
    "DisplayLatitude": 47.990392,
    "DisplayLongitude": -122.182587,
    "ImageHeight": 249,
    "url": "https://images.wsdot.wa.gov/nw/005vc19469.jpg",
    "ImageWidth": 335,
    "IsActive": true,
    "OwnerURL": "",
    "Region": "NW",
    "SortOrder": 1000,
    "Title": "I-5 at MP 194.6: Marine View Dr"
  },
  {
    "id": 9560,
    "CameraLocation": "null|B|47.99793|-122.174319|195|I-5",
    "CameraOwner": "",
    "Description": "",
    "DisplayLatitude": 47.99793,
    "DisplayLongitude": -122.174319,
    "ImageHeight": 249,
    "url": "https://images.wsdot.wa.gov/nw/005vc19534.jpg",
    "ImageWidth": 335,
    "IsActive": true,
    "OwnerURL": "",
    "Region": "NW",
    "SortOrder": 1000,
    "Title": "I-5 at MP 195.3: 15th St"
  },
  {
    "id": 9275,
    "CameraLocation": "null|B|48.007696|-122.174249|196|I-5",
    "CameraOwner": "",
    "Description": "",
    "DisplayLatitude": 48.007696,
    "DisplayLongitude": -122.174249,
    "ImageHeight": 249,
    "url": "https://images.wsdot.wa.gov/nw/005vc19601.jpg",
    "ImageWidth": 335,
    "IsActive": true,
    "OwnerURL": "",
    "Region": "NW",
    "SortOrder": 1000,
    "Title": "I-5 at MP 196: 12th St NE"
  },
  {
    "id": 9276,
    "CameraLocation": "null|B|48.019586|-122.174876|196|I-5",
    "CameraOwner": "",
    "Description": "",
    "DisplayLatitude": 48.019586,
    "DisplayLongitude": -122.174876,
    "ImageHeight": 249,
    "url": "https://images.wsdot.wa.gov/nw/005vc19684.jpg",
    "ImageWidth": 335,
    "IsActive": true,
    "OwnerURL": "",
    "Region": "NW",
    "SortOrder": 1000,
    "Title": "I-5 at MP 196.8: 26th St NE"
  },
  {
    "id": 9561,
    "CameraLocation": "null|B|48.029643|-122.176803|197|I-5",
    "CameraOwner": "",
    "Description": "",
    "DisplayLatitude": 48.029643,
    "DisplayLongitude": -122.176803,
    "ImageHeight": 249,
    "url": "https://images.wsdot.wa.gov/nw/005vc19754.jpg",
    "ImageWidth": 335,
    "IsActive": true,
    "OwnerURL": "",
    "Region": "NW",
    "SortOrder": 1000,
    "Title": "I-5 at MP 197.5: 37th St NE"
  },
  {
    "id": 9269,
    "CameraLocation": "null|B|48.042175|-122.179907|198|I-5",
    "CameraOwner": "",
    "Description": "",
    "DisplayLatitude": 48.042175,
    "DisplayLongitude": -122.179907,
    "ImageHeight": 249,
    "url": "https://images.wsdot.wa.gov/nw/005vc19843.jpg",
    "ImageWidth": 335,
    "IsActive": true,
    "OwnerURL": "",
    "Region": "NW",
    "SortOrder": 1000,
    "Title": "I-5 at MP 198.4: SR 529 Interchange"
  },
  {
    "id": 9270,
    "CameraLocation": "null|B|48.051561|-122.184421|199|I-5",
    "CameraOwner": "",
    "Description": "",
    "DisplayLatitude": 48.051561,
    "DisplayLongitude": -122.184421,
    "ImageHeight": 249,
    "url": "https://images.wsdot.wa.gov/nw/005vc19910.jpg",
    "ImageWidth": 335,
    "IsActive": true,
    "OwnerURL": "",
    "Region": "NW",
    "SortOrder": 1000,
    "Title": "I-5 at MP 199.1: SR 528 Interchange"
  },
  {
    "id": 9562,
    "CameraLocation": "null|B|48.062776|-122.184679|199|I-5",
    "CameraOwner": "",
    "Description": "",
    "DisplayLatitude": 48.062776,
    "DisplayLongitude": -122.184679,
    "ImageHeight": 249,
    "url": "https://images.wsdot.wa.gov/nw/005vc19988.jpg",
    "ImageWidth": 335,
    "IsActive": true,
    "OwnerURL": "",
    "Region": "NW",
    "SortOrder": 1000,
    "Title": "I-5 at MP 199.8: 72nd St NE"
  },
  {
    "id": 9235,
    "CameraLocation": "null|B|48.075549|-122.184631|200|I-5",
    "CameraOwner": "",
    "Description": "",
    "DisplayLatitude": 48.075549,
    "DisplayLongitude": -122.184631,
    "ImageHeight": 249,
    "url": "https://images.wsdot.wa.gov/nw/005vc20077.jpg",
    "ImageWidth": 335,
    "IsActive": true,
    "OwnerURL": "",
    "Region": "NW",
    "SortOrder": 1000,
    "Title": "I-5 at MP 200.7: 88th St NE"
  },
  {
    "id": 9563,
    "CameraLocation": "null|B|48.087415|-122.184685|201|I-5",
    "CameraOwner": "",
    "Description": "",
    "DisplayLatitude": 48.087415,
    "DisplayLongitude": -122.184685,
    "ImageHeight": 249,
    "url": "https://images.wsdot.wa.gov/nw/005vc20159.jpg",
    "ImageWidth": 335,
    "IsActive": true,
    "OwnerURL": "",
    "Region": "NW",
    "SortOrder": 1000,
    "Title": "I-5 at MP 201.5: 101st Pl NE"
  },
  {
    "id": 9236,
    "CameraLocation": "null|B|48.099973|-122.184725|202|I-5",
    "CameraOwner": "",
    "Description": "",
    "DisplayLatitude": 48.099973,
    "DisplayLongitude": -122.184725,
    "ImageHeight": 249,
    "url": "https://images.wsdot.wa.gov/nw/005vc20249.jpg",
    "ImageWidth": 335,
    "IsActive": true,
    "OwnerURL": "",
    "Region": "NW",
    "SortOrder": 1000,
    "Title": "I-5 at MP 202.4: 116th St NE"
  },
  {
    "id": 9752,
    "CameraLocation": "null|B|48.100705|-122.184761|202|I-5",
    "CameraOwner": "",
    "Description": "",
    "DisplayLatitude": 48.100705,
    "DisplayLongitude": -122.184761,
    "ImageHeight": 249,
    "url": "https://images.wsdot.wa.gov/nw/005vc20251.jpg",
    "ImageWidth": 335,
    "IsActive": true,
    "OwnerURL": "",
    "Region": "NW",
    "SortOrder": 1000,
    "Title": "I-5 at MP 202.5: 117th St NE"
  },
  {
    "id": 9237,
    "CameraLocation": "null|B|48.11244|-122.184781|203|I-5",
    "CameraOwner": "",
    "Description": "",
    "DisplayLatitude": 48.11244,
    "DisplayLongitude": -122.184781,
    "ImageHeight": 249,
    "url": "https://images.wsdot.wa.gov/nw/005vc20332.jpg",
    "ImageWidth": 335,
    "IsActive": true,
    "OwnerURL": "",
    "Region": "NW",
    "SortOrder": 1000,
    "Title": "I-5 at MP 203.3: 128th St NE"
  },
  {
    "id": 9345,
    "CameraLocation": "null|B|48.11926|-122.185014|203|I-5",
    "CameraOwner": "",
    "Description": "",
    "DisplayLatitude": 48.11926,
    "DisplayLongitude": -122.185014,
    "ImageHeight": 249,
    "url": "https://images.wsdot.wa.gov/nw/005vc20379.jpg",
    "ImageWidth": 335,
    "IsActive": true,
    "OwnerURL": "",
    "Region": "NW",
    "SortOrder": 1000,
    "Title": "I-5 at MP 203.7: 136th St NE"
  },
  {
    "id": 9238,
    "CameraLocation": "null|B|48.125796|-122.185335|204|I-5",
    "CameraOwner": "",
    "Description": "",
    "DisplayLatitude": 48.125796,
    "DisplayLongitude": -122.185335,
    "ImageHeight": 249,
    "url": "https://images.wsdot.wa.gov/nw/005vc20424.jpg",
    "ImageWidth": 335,
    "IsActive": true,
    "OwnerURL": "",
    "Region": "NW",
    "SortOrder": 1000,
    "Title": "I-5 at MP 204.2: 144th St NE"
  },
  {
    "id": 9344,
    "CameraLocation": "null|B|48.137232|-122.186082|205|I-5",
    "CameraOwner": "",
    "Description": "",
    "DisplayLatitude": 48.137232,
    "DisplayLongitude": -122.186082,
    "ImageHeight": 249,
    "url": "https://images.wsdot.wa.gov/nw/005vc20503.jpg",
    "ImageWidth": 335,
    "IsActive": true,
    "OwnerURL": "",
    "Region": "NW",
    "SortOrder": 1000,
    "Title": "I-5 at MP 205: 156th St NE"
  },
  {
    "id": 1433,
    "CameraLocation": "null|B|48.152468|-122.188697|206|I-5",
    "CameraOwner": "",
    "Description": "",
    "DisplayLatitude": 48.152468,
    "DisplayLongitude": -122.188697,
    "ImageHeight": 249,
    "url": "https://images.wsdot.wa.gov/nw/005vc20609.jpg",
    "ImageWidth": 335,
    "IsActive": true,
    "OwnerURL": "",
    "Region": "NW",
    "SortOrder": 1000,
    "Title": "I-5 at MP 206: SR 531 Interchange"
  },
  {
    "id": 9271,
    "CameraLocation": "null|B|48.164276|-122.190791|207|I-5",
    "CameraOwner": "",
    "Description": "",
    "DisplayLatitude": 48.164276,
    "DisplayLongitude": -122.190791,
    "ImageHeight": 249,
    "url": "https://images.wsdot.wa.gov/nw/005vc20691.jpg",
    "ImageWidth": 335,
    "IsActive": true,
    "OwnerURL": "",
    "Region": "NW",
    "SortOrder": 1000,
    "Title": "I-5 at MP 206.9: 184th St NE"
  },
  {
    "id": 9564,
    "CameraLocation": "null|B|48.176371|-122.193108|207|I-5",
    "CameraOwner": "",
    "Description": "",
    "DisplayLatitude": 48.176371,
    "DisplayLongitude": -122.193108,
    "ImageHeight": 249,
    "url": "https://images.wsdot.wa.gov/nw/005vc20776.jpg",
    "ImageWidth": 335,
    "IsActive": true,
    "OwnerURL": "",
    "Region": "NW",
    "SortOrder": 1000,
    "Title": "I-5 at MP 207.7: 200th St NE"
  },
  {
    "id": 9239,
    "CameraLocation": "null|B|48.187964|-122.202772|208|I-5",
    "CameraOwner": "",
    "Description": "",
    "DisplayLatitude": 48.187964,
    "DisplayLongitude": -122.202772,
    "ImageHeight": 249,
    "url": "https://images.wsdot.wa.gov/nw/005vc20868.jpg",
    "ImageWidth": 335,
    "IsActive": true,
    "OwnerURL": "",
    "Region": "NW",
    "SortOrder": 1000,
    "Title": "I-5 at MP 208.6: SR 530 Interchange"
  },
  {
    "id": 9240,
    "CameraLocation": "null|B|48.196261|-122.209424|209|I-5",
    "CameraOwner": "",
    "Description": "",
    "DisplayLatitude": 48.196261,
    "DisplayLongitude": -122.209424,
    "ImageHeight": 249,
    "url": "https://images.wsdot.wa.gov/nw/005vc20934.jpg",
    "ImageWidth": 335,
    "IsActive": true,
    "OwnerURL": "",
    "Region": "NW",
    "SortOrder": 1000,
    "Title": "I-5 at MP 209.3: Stillaguamish River"
  },
  {
    "id": 5021,
    "CameraLocation": "null|S|48.198536|-122.210529|209|I-5",
    "CameraOwner": "",
    "Description": "",
    "DisplayLatitude": 48.198536,
    "DisplayLongitude": -122.210529,
    "ImageHeight": 249,
    "url": "https://images.wsdot.wa.gov/nw/005vc20983.jpg",
    "ImageWidth": 335,
    "IsActive": true,
    "OwnerURL": "",
    "Region": "NW",
    "SortOrder": 1000,
    "Title": "I-5 at MP 209.8: 228th St NE"
  },
  {
    "id": 9568,
    "CameraLocation": "null|B|48.209979|-122.215798|210|I-5",
    "CameraOwner": "",
    "Description": "",
    "DisplayLatitude": 48.209979,
    "DisplayLongitude": -122.215798,
    "ImageHeight": 249,
    "url": "https://images.wsdot.wa.gov/nw/005vc21032.jpg",
    "ImageWidth": 335,
    "IsActive": true,
    "OwnerURL": "",
    "Region": "NW",
    "SortOrder": 1000,
    "Title": "I-5 at MP 210.3: 236th St NE"
  },
  {
    "id": 5020,
    "CameraLocation": "null|S|48.239445|-122.241352|212|I-5",
    "CameraOwner": "",
    "Description": "",
    "DisplayLatitude": 48.239445,
    "DisplayLongitude": -122.241352,
    "ImageHeight": 249,
    "url": "https://images.wsdot.wa.gov/nw/005vc21272.jpg",
    "ImageWidth": 335,
    "IsActive": true,
    "OwnerURL": "",
    "Region": "NW",
    "SortOrder": 1000,
    "Title": "I-5 at MP 212.7: SR 532 Interchange"
  },
  {
    "id": 8105,
    "CameraLocation": "null|N|48.40002|-122.330398|225|I-5",
    "CameraOwner": "",
    "Description": "",
    "DisplayLatitude": 48.40002,
    "DisplayLongitude": -122.330398,
    "ImageHeight": 249,
    "url": "https://images.wsdot.wa.gov/nw/005vc22518.jpg",
    "ImageWidth": 335,
    "IsActive": true,
    "OwnerURL": "",
    "Region": "NW",
    "SortOrder": 1000,
    "Title": "I-5 at MP 225.1: Anderson Rd (North)"
  },
  {
    "id": 8104,
    "CameraLocation": "null|N|48.399878|-122.330391|225|I-5",
    "CameraOwner": "",
    "Description": "",
    "DisplayLatitude": 48.399878,
    "DisplayLongitude": -122.330391,
    "ImageHeight": 249,
    "url": "https://images.wsdot.wa.gov/nw/005vc22517.jpg",
    "ImageWidth": 335,
    "IsActive": true,
    "OwnerURL": "",
    "Region": "NW",
    "SortOrder": 1000,
    "Title": "I-5 at MP 225.1: Anderson Rd (South)"
  },
  {
    "id": 5018,
    "CameraLocation": "null|N|48.42489|-122.33731|226|I-5",
    "CameraOwner": "",
    "Description": "",
    "DisplayLatitude": 48.42489,
    "DisplayLongitude": -122.33731,
    "ImageHeight": 272,
    "url": "https://images.wsdot.wa.gov/nw/005vc22670.jpg",
    "ImageWidth": 335,
    "IsActive": true,
    "OwnerURL": "",
    "Region": "NW",
    "SortOrder": 1000,
    "Title": "I-5 at MP 226.7: North of Kincaid St"
  },
  {
    "id": 1316,
    "CameraLocation": "null|S|48.435747|-122.340998|227|I-5",
    "CameraOwner": "",
    "Description": "",
    "DisplayLatitude": 48.435747,
    "DisplayLongitude": -122.340998,
    "ImageHeight": 249,
    "url": "https://images.wsdot.wa.gov/nw/005vc22773.jpg",
    "ImageWidth": 335,
    "IsActive": true,
    "OwnerURL": "",
    "Region": "NW",
    "SortOrder": 1000,
    "Title": "I-5 at MP 227.7: College Way"
  },
  {
    "id": 8059,
    "CameraLocation": "null|S|48.435889|-122.340212|227|I-5",
    "CameraOwner": "",
    "Description": "",
    "DisplayLatitude": 48.435889,
    "DisplayLongitude": -122.340212,
    "ImageHeight": 249,
    "url": "https://images.wsdot.wa.gov/nw/538vc00004.jpg",
    "ImageWidth": 335,
    "IsActive": true,
    "OwnerURL": "",
    "Region": "NW",
    "SortOrder": 1000,
    "Title": "I-5 at MP 227.7: College Way NB Ramps (SR 538)"
  },
  {
    "id": 9383,
    "CameraLocation": "null|B|48.451283|-122.341171|228|I-5",
    "CameraOwner": "",
    "Description": "",
    "DisplayLatitude": 48.451283,
    "DisplayLongitude": -122.341171,
    "ImageHeight": 249,
    "url": "https://images.wsdot.wa.gov/nw/005vc22887.jpg",
    "ImageWidth": 335,
    "IsActive": true,
    "OwnerURL": "",
    "Region": "NW",
    "SortOrder": 1000,
    "Title": "I-5 at MP 228.8: George Hopper Rd"
  },
  {
    "id": 8060,
    "CameraLocation": "null|S|48.47014|-122.341933|230|I-5",
    "CameraOwner": "",
    "Description": "",
    "DisplayLatitude": 48.47014,
    "DisplayLongitude": -122.341933,
    "ImageHeight": 249,
    "url": "https://images.wsdot.wa.gov/nw/005vc23012.jpg",
    "ImageWidth": 335,
    "IsActive": true,
    "OwnerURL": "",
    "Region": "NW",
    "SortOrder": 1000,
    "Title": "I-5 at MP 230.1: SR 20 Interchange"
  },
  {
    "id": 1054,
    "CameraLocation": "null|N|48.688088|-122.399404|246|I-5",
    "CameraOwner": "",
    "Description": "",
    "DisplayLatitude": 48.688088,
    "DisplayLongitude": -122.399404,
    "ImageHeight": 249,
    "url": "https://images.wsdot.wa.gov/nw/005vc24625.jpg",
    "ImageWidth": 335,
    "IsActive": true,
    "OwnerURL": "",
    "Region": "NW",
    "SortOrder": 1000,
    "Title": "I-5 at MP 246.2: Lake Samish Park and Ride"
  },
  {
    "id": 1322,
    "CameraLocation": "null|N|48.708634|-122.476504|250|I-5",
    "CameraOwner": "",
    "Description": "",
    "DisplayLatitude": 48.708634,
    "DisplayLongitude": -122.476504,
    "ImageHeight": 249,
    "url": "https://images.wsdot.wa.gov/nw/005vc25036.jpg",
    "ImageWidth": 335,
    "IsActive": true,
    "OwnerURL": "",
    "Region": "NW",
    "SortOrder": 1000,
    "Title": "I-5 at MP 250.3: South of Old Fairhaven Parkway NB"
  },
  {
    "id": 1526,
    "CameraLocation": "null|B|48.713771|-122.474452|250|I-5",
    "CameraOwner": "",
    "Description": "",
    "DisplayLatitude": 48.713771,
    "DisplayLongitude": -122.474452,
    "ImageHeight": 249,
    "url": "https://images.wsdot.wa.gov/nw/005vc25074.jpg",
    "ImageWidth": 335,
    "IsActive": true,
    "OwnerURL": "",
    "Region": "NW",
    "SortOrder": 1000,
    "Title": "I-5 at MP 250.7: Old Fairhaven Parkway"
  },
  {
    "id": 9336,
    "CameraLocation": "null|B|48.729047|-122.471858|251|I-5",
    "CameraOwner": "",
    "Description": "",
    "DisplayLatitude": 48.729047,
    "DisplayLongitude": -122.471858,
    "ImageHeight": 249,
    "url": "https://images.wsdot.wa.gov/nw/005vc25183.jpg",
    "ImageWidth": 335,
    "IsActive": true,
    "OwnerURL": "",
    "Region": "NW",
    "SortOrder": 1000,
    "Title": "I-5 at MP 251.8: Samish Way SB Onramp"
  },
  {
    "id": 9337,
    "CameraLocation": "null|B|48.734084|-122.467421|252|I-5",
    "CameraOwner": "",
    "Description": "",
    "DisplayLatitude": 48.734084,
    "DisplayLongitude": -122.467421,
    "ImageHeight": 249,
    "url": "https://images.wsdot.wa.gov/nw/005vc25223.jpg",
    "ImageWidth": 335,
    "IsActive": true,
    "OwnerURL": "",
    "Region": "NW",
    "SortOrder": 1000,
    "Title": "I-5 at MP 252.2: Samish Way NB Onramp"
  },
  {
    "id": 1323,
    "CameraLocation": "null|B|48.746344|-122.465241|253|I-5",
    "CameraOwner": "",
    "Description": "",
    "DisplayLatitude": 48.746344,
    "DisplayLongitude": -122.465241,
    "ImageHeight": 249,
    "url": "https://images.wsdot.wa.gov/nw/005vc25308.jpg",
    "ImageWidth": 335,
    "IsActive": true,
    "OwnerURL": "",
    "Region": "NW",
    "SortOrder": 1000,
    "Title": "I-5 at MP 253: Lakeway Dr"
  },
  {
    "id": 1324,
    "CameraLocation": "null|B|48.754655|-122.461813|254|I-5",
    "CameraOwner": "",
    "Description": "",
    "DisplayLatitude": 48.754655,
    "DisplayLongitude": -122.461813,
    "ImageHeight": 249,
    "url": "https://images.wsdot.wa.gov/nw/005vc25368.jpg",
    "ImageWidth": 335,
    "IsActive": true,
    "OwnerURL": "",
    "Region": "NW",
    "SortOrder": 1000,
    "Title": "I-5 at MP 253.6: Iowa St"
  },
  {
    "id": 1325,
    "CameraLocation": "null|B|48.772598|-122.464359|255|I-5",
    "CameraOwner": "",
    "Description": "",
    "DisplayLatitude": 48.772598,
    "DisplayLongitude": -122.464359,
    "ImageHeight": 249,
    "url": "https://images.wsdot.wa.gov/nw/005vc25494.jpg",
    "ImageWidth": 335,
    "IsActive": true,
    "OwnerURL": "",
    "Region": "NW",
    "SortOrder": 1000,
    "Title": "I-5 at MP 254.9: Sunset Dr"
  },
  {
    "id": 1326,
    "CameraLocation": "null|B|48.783086|-122.487855|256|I-5",
    "CameraOwner": "",
    "Description": "",
    "DisplayLatitude": 48.783086,
    "DisplayLongitude": -122.487855,
    "ImageHeight": 249,
    "url": "https://images.wsdot.wa.gov/nw/005vc25630.jpg",
    "ImageWidth": 335,
    "IsActive": true,
    "OwnerURL": "",
    "Region": "NW",
    "SortOrder": 1000,
    "Title": "I-5 at MP 256.3: Meridian St"
  },
  {
    "id": 9347,
    "CameraLocation": "null|B|48.783601|-122.498239|256|I-5",
    "CameraOwner": "",
    "Description": "",
    "DisplayLatitude": 48.783601,
    "DisplayLongitude": -122.498239,
    "ImageHeight": 249,
    "url": "https://images.wsdot.wa.gov/nw/005vc25683.jpg",
    "ImageWidth": 335,
    "IsActive": true,
    "OwnerURL": "",
    "Region": "NW",
    "SortOrder": 1000,
    "Title": "I-5 at MP 256.8: Northwest Ave"
  },
  {
    "id": 1329,
    "CameraLocation": "null|B|48.788561|-122.516488|257|I-5",
    "CameraOwner": "",
    "Description": "",
    "DisplayLatitude": 48.788561,
    "DisplayLongitude": -122.516488,
    "ImageHeight": 249,
    "url": "https://images.wsdot.wa.gov/nw/005vc25766.jpg",
    "ImageWidth": 335,
    "IsActive": true,
    "OwnerURL": "",
    "Region": "NW",
    "SortOrder": 1000,
    "Title": "I-5 at MP 257.6: Bakerview Rd"
  },
  {
    "id": 9569,
    "CameraLocation": "null|B|48.788498|-122.516301|257|I-5",
    "CameraOwner": "",
    "Description": "",
    "DisplayLatitude": 48.788498,
    "DisplayLongitude": -122.516301,
    "ImageHeight": 249,
    "url": "https://images.wsdot.wa.gov/nw/005vc25767.jpg",
    "ImageWidth": 335,
    "IsActive": true,
    "OwnerURL": "",
    "Region": "NW",
    "SortOrder": 1000,
    "Title": "I-5 at MP 257.6: Bakerview, SB Offramp"
  },
  {
    "id": 9323,
    "CameraLocation": "null|B|48.797938|-122.529225|258|I-5",
    "CameraOwner": "",
    "Description": "",
    "DisplayLatitude": 48.797938,
    "DisplayLongitude": -122.529225,
    "ImageHeight": 249,
    "url": "https://images.wsdot.wa.gov/nw/005vc25857.jpg",
    "ImageWidth": 335,
    "IsActive": true,
    "OwnerURL": "",
    "Region": "NW",
    "SortOrder": 1000,
    "Title": "I-5 at MP 258.5: Bellingham Airport"
  },
  {
    "id": 9324,
    "CameraLocation": "null|B|48.817353|-122.548051|260|I-5",
    "CameraOwner": "",
    "Description": "",
    "DisplayLatitude": 48.817353,
    "DisplayLongitude": -122.548051,
    "ImageHeight": 249,
    "url": "https://images.wsdot.wa.gov/nw/005vc26014.jpg",
    "ImageWidth": 335,
    "IsActive": true,
    "OwnerURL": "",
    "Region": "NW",
    "SortOrder": 1000,
    "Title": "I-5 at MP 260.1: Slater Rd"
  },
  {
    "id": 1328,
    "CameraLocation": "null|B|48.831643|-122.561947|261|I-5",
    "CameraOwner": "",
    "Description": "",
    "DisplayLatitude": 48.831643,
    "DisplayLongitude": -122.561947,
    "ImageHeight": 249,
    "url": "https://images.wsdot.wa.gov/nw/005vc26132.jpg",
    "ImageWidth": 335,
    "IsActive": true,
    "OwnerURL": "",
    "Region": "NW",
    "SortOrder": 1000,
    "Title": "I-5 at MP 261.3: Smith Rd"
  },
  {
    "id": 9325,
    "CameraLocation": "null|B|48.848442|-122.577182|262|I-5",
    "CameraOwner": "",
    "Description": "",
    "DisplayLatitude": 48.848442,
    "DisplayLongitude": -122.577182,
    "ImageHeight": 249,
    "url": "https://images.wsdot.wa.gov/nw/005vc26269.jpg",
    "ImageWidth": 335,
    "IsActive": true,
    "OwnerURL": "",
    "Region": "NW",
    "SortOrder": 1000,
    "Title": "I-5 at MP 262.6: Main St"
  },
  {
    "id": 9348,
    "CameraLocation": "null|B|48.846143|-122.574958|262|I-5",
    "CameraOwner": "",
    "Description": "",
    "DisplayLatitude": 48.846143,
    "DisplayLongitude": -122.574958,
    "ImageHeight": 249,
    "url": "https://images.wsdot.wa.gov/nw/005vc26256.jpg",
    "ImageWidth": 335,
    "IsActive": true,
    "OwnerURL": "",
    "Region": "NW",
    "SortOrder": 1000,
    "Title": "I-5 at MP 262.5: Main St NB Ramps"
  },
  {
    "id": 9349,
    "CameraLocation": "null|B|48.84639|-122.575195|262|I-5",
    "CameraOwner": "",
    "Description": "",
    "DisplayLatitude": 48.84639,
    "DisplayLongitude": -122.575195,
    "ImageHeight": 249,
    "url": "https://images.wsdot.wa.gov/nw/005vc26258.jpg",
    "ImageWidth": 335,
    "IsActive": true,
    "OwnerURL": "",
    "Region": "NW",
    "SortOrder": 1000,
    "Title": "I-5 at MP 262.5: Main St SB Ramps"
  },
  {
    "id": 9326,
    "CameraLocation": "null|B|48.860173|-122.587664|263|I-5",
    "CameraOwner": "",
    "Description": "",
    "DisplayLatitude": 48.860173,
    "DisplayLongitude": -122.587664,
    "ImageHeight": 249,
    "url": "https://images.wsdot.wa.gov/nw/005vc26363.jpg",
    "ImageWidth": 335,
    "IsActive": true,
    "OwnerURL": "",
    "Region": "NW",
    "SortOrder": 1000,
    "Title": "I-5 at MP 263.6: Portal Way"
  },
  {
    "id": 9327,
    "CameraLocation": "null|B|48.877489|-122.588776|264|I-5",
    "CameraOwner": "",
    "Description": "",
    "DisplayLatitude": 48.877489,
    "DisplayLongitude": -122.588776,
    "ImageHeight": 249,
    "url": "https://images.wsdot.wa.gov/nw/005vc26484.jpg",
    "ImageWidth": 335,
    "IsActive": true,
    "OwnerURL": "",
    "Region": "NW",
    "SortOrder": 1000,
    "Title": "I-5 at MP 264.8: Trigg Rd"
  },
  {
    "id": 9328,
    "CameraLocation": "null|B|48.891999|-122.596691|265|I-5",
    "CameraOwner": "",
    "Description": "",
    "DisplayLatitude": 48.891999,
    "DisplayLongitude": -122.596691,
    "ImageHeight": 249,
    "url": "https://images.wsdot.wa.gov/nw/005vc26598.jpg",
    "ImageWidth": 335,
    "IsActive": true,
    "OwnerURL": "",
    "Region": "NW",
    "SortOrder": 1000,
    "Title": "I-5 at MP 265.9: Grandview Rd"
  },
  {
    "id": 9329,
    "CameraLocation": "null|B|48.900973|-122.611438|266|I-5",
    "CameraOwner": "",
    "Description": "",
    "DisplayLatitude": 48.900973,
    "DisplayLongitude": -122.611438,
    "ImageHeight": 249,
    "url": "https://images.wsdot.wa.gov/nw/005vc26689.jpg",
    "ImageWidth": 335,
    "IsActive": true,
    "OwnerURL": "",
    "Region": "NW",
    "SortOrder": 1000,
    "Title": "I-5 at MP 266.8: California Creek"
  },
  {
    "id": 9330,
    "CameraLocation": "null|B|48.909345|-122.623868|268|I-5",
    "CameraOwner": "",
    "Description": "",
    "DisplayLatitude": 48.909345,
    "DisplayLongitude": -122.623868,
    "ImageHeight": 249,
    "url": "https://images.wsdot.wa.gov/nw/005vc26770.jpg",
    "ImageWidth": 335,
    "IsActive": true,
    "OwnerURL": "",
    "Region": "NW",
    "SortOrder": 1000,
    "Title": "I-5 at MP 267.7: NB Custer Rest Area"
  },
  {
    "id": 9332,
    "CameraLocation": "null|B|48.913218|-122.628098|268|I-5",
    "CameraOwner": "",
    "Description": "",
    "DisplayLatitude": 48.913218,
    "DisplayLongitude": -122.628098,
    "ImageHeight": 249,
    "url": "https://images.wsdot.wa.gov/nw/005vc26803.jpg",
    "ImageWidth": 335,
    "IsActive": true,
    "OwnerURL": "",
    "Region": "NW",
    "SortOrder": 1000,
    "Title": "I-5 at MP 268: Zell Rd"
  },
  {
    "id": 9331,
    "CameraLocation": "null|B|48.9207|-122.634791|268|I-5",
    "CameraOwner": "",
    "Description": "",
    "DisplayLatitude": 48.9207,
    "DisplayLongitude": -122.634791,
    "ImageHeight": 249,
    "url": "https://images.wsdot.wa.gov/nw/005vc26863.jpg",
    "ImageWidth": 335,
    "IsActive": true,
    "OwnerURL": "",
    "Region": "NW",
    "SortOrder": 1000,
    "Title": "I-5 at MP 268.6: Willeys Lake Rd"
  },
  {
    "id": 9333,
    "CameraLocation": "null|B|48.927172|-122.644542|269|I-5",
    "CameraOwner": "",
    "Description": "",
    "DisplayLatitude": 48.927172,
    "DisplayLongitude": -122.644542,
    "ImageHeight": 249,
    "url": "https://images.wsdot.wa.gov/nw/005vc26926.jpg",
    "ImageWidth": 335,
    "IsActive": true,
    "OwnerURL": "",
    "Region": "NW",
    "SortOrder": 1000,
    "Title": "I-5 at MP 269.2: SB Custer Rest Area South"
  },
  {
    "id": 9334,
    "CameraLocation": "null|B|48.92744|-122.645056|269|I-5",
    "CameraOwner": "",
    "Description": "",
    "DisplayLatitude": 48.92744,
    "DisplayLongitude": -122.645056,
    "ImageHeight": 249,
    "url": "https://images.wsdot.wa.gov/nw/005vc26929.jpg",
    "ImageWidth": 335,
    "IsActive": true,
    "OwnerURL": "",
    "Region": "NW",
    "SortOrder": 1000,
    "Title": "I-5 at MP 269.2: SB Custer Rest Area North"
  },
  {
    "id": 9335,
    "CameraLocation": "null|B|48.935539|-122.661818|270|I-5",
    "CameraOwner": "",
    "Description": "",
    "DisplayLatitude": 48.935539,
    "DisplayLongitude": -122.661818,
    "ImageHeight": 249,
    "url": "https://images.wsdot.wa.gov/nw/005vc27024.jpg",
    "ImageWidth": 335,
    "IsActive": true,
    "OwnerURL": "",
    "Region": "NW",
    "SortOrder": 1000,
    "Title": "I-5 at MP 270.2: Birch Bay-Lynden Rd"
  },
  {
    "id": 1055,
    "CameraLocation": "null|B|48.9481|-122.681668|271|I-5",
    "CameraOwner": "",
    "Description": "",
    "DisplayLatitude": 48.9481,
    "DisplayLongitude": -122.681668,
    "ImageHeight": 249,
    "url": "https://images.wsdot.wa.gov/nw/005vc27149.jpg",
    "ImageWidth": 335,
    "IsActive": true,
    "OwnerURL": "",
    "Region": "NW",
    "SortOrder": 1000,
    "Title": "I-5 at MP 271.4: Loomis Trail Rd"
  },
  {
    "id": 1330,
    "CameraLocation": "null|B|48.961636|-122.702218|273|I-5",
    "CameraOwner": "",
    "Description": "",
    "DisplayLatitude": 48.961636,
    "DisplayLongitude": -122.702218,
    "ImageHeight": 249,
    "url": "https://images.wsdot.wa.gov/nw/005vc27281.jpg",
    "ImageWidth": 335,
    "IsActive": true,
    "OwnerURL": "",
    "Region": "NW",
    "SortOrder": 1000,
    "Title": "I-5 at MP 272.8: W 88th St"
  },
  {
    "id": 1056,
    "CameraLocation": "null|B|48.975121|-122.723327|274|I-5",
    "CameraOwner": "",
    "Description": "",
    "DisplayLatitude": 48.975121,
    "DisplayLongitude": -122.723327,
    "ImageHeight": 249,
    "url": "https://images.wsdot.wa.gov/nw/005vc27416.jpg",
    "ImageWidth": 335,
    "IsActive": true,
    "OwnerURL": "",
    "Region": "NW",
    "SortOrder": 1000,
    "Title": "I-5 at MP 274.1: Peace Portal Dr"
  },
  {
    "id": 1210,
    "CameraLocation": "null|B|48.986635|-122.735409|275|I-5",
    "CameraOwner": "",
    "Description": "",
    "DisplayLatitude": 48.986635,
    "DisplayLongitude": -122.735409,
    "ImageHeight": 249,
    "url": "https://images.wsdot.wa.gov/nw/005vc27512.jpg",
    "ImageWidth": 335,
    "IsActive": true,
    "OwnerURL": "",
    "Region": "NW",
    "SortOrder": 1000,
    "Title": "I-5 at MP 275.1: SR 543 Interchange"
  },
  {
    "id": 9072,
    "CameraLocation": "null|B|48.991334|-122.741968|275|I-5",
    "CameraOwner": "",
    "Description": "",
    "DisplayLatitude": 48.991334,
    "DisplayLongitude": -122.741968,
    "ImageHeight": 249,
    "url": "https://images.wsdot.wa.gov/nw/005vc27556.jpg",
    "ImageWidth": 335,
    "IsActive": true,
    "OwnerURL": "",
    "Region": "NW",
    "SortOrder": 1000,
    "Title": "I-5 at MP 275.5: Mitchell Ave"
  },
  {
    "id": 1058,
    "CameraLocation": "null|B|48.997016|-122.750826|276|I-5",
    "CameraOwner": "",
    "Description": "",
    "DisplayLatitude": 48.997016,
    "DisplayLongitude": -122.750826,
    "ImageHeight": 249,
    "url": "https://images.wsdot.wa.gov/nw/005vc27613.jpg",
    "ImageWidth": 335,
    "IsActive": true,
    "OwnerURL": "",
    "Region": "NW",
    "SortOrder": 1000,
    "Title": "I-5 at MP 276.1: D St Offramp"
  },
  {
    "id": 1281,
    "CameraLocation": "null|B|48.998067|-122.752306|276|I-5",
    "CameraOwner": "",
    "Description": "",
    "DisplayLatitude": 48.998067,
    "DisplayLongitude": -122.752306,
    "ImageHeight": 249,
    "url": "https://images.wsdot.wa.gov/nw/005vc27623.jpg",
    "ImageWidth": 335,
    "IsActive": true,
    "OwnerURL": "",
    "Region": "NW",
    "SortOrder": 1000,
    "Title": "I-5 at MP 276.2: D St"
  },
  {
    "id": 1057,
    "CameraLocation": "null|N|49.001335|-122.755444|277|I-5",
    "CameraOwner": "",
    "Description": "",
    "DisplayLatitude": 49.001335,
    "DisplayLongitude": -122.755444,
    "ImageHeight": 249,
    "url": "https://images.wsdot.wa.gov/nw/005vc27650.jpg",
    "ImageWidth": 335,
    "IsActive": true,
    "OwnerURL": "",
    "Region": "NW",
    "SortOrder": 1000,
    "Title": "I-5 at MP 276.5: Peace Arch"
  }
,
{
    "OBJECTID": 97,
    "AssetID": 300,
    "RouteID": 77059,
    "Measure": 739,
    "Offset": -40,
    "Location": "Peasley Canyon Road S and S 321st St, northwest corner, lighting pole",
    "url": "http://info.kingcounty.gov/transportation/kcdot/Roads/TrafficCameras/ImageHandler/Handler.ashx?id=PeasleyCanyon_S321st.jpg",
    "CamRegion": "South",
    "Description": "Located south of Redmond in unincorporated King County",
    "Live": 1,
    "InstallDate": 1553472000000,
    "Model": "PD910",
    "Manufacturer": "SIQURA",
    "Owner": "King County",
    "Jurisdiction": "King County",
    "CurrentStatus": "Active",
    "IsMobile": "No",
    "CameraMountedBy": "Direct",
    "MountedOn": "Post",
    "PoleMaterial": null,
    "PoleHeight": null,
    "BridgeName": null,
    "BridgeNum": null,
    "ImageFileLoc": null,
    "ThumbFileLoc": null,
    "DBCreateDate": 1570117080000,
    "DBModDate": 1570117357000,
    "ModifiedBy": "bachj",
    "ActiveDate": 1570117198000,
    "RetireDate": null,
    "SortOrder": 1151,
    "MountStructureID": 124326,
    "id": 300
  },