[
	{
    "id": 1392,
    "CameraLocation": "null|B|47.253197|-122.332013|139|I-5",
    "CameraOwner": "",
    "Description": "",
    "DisplayLatitude": 47.253197,
    "DisplayLongitude": -122.332013,
    "ImageHeight": 249,
    "url": "https://images.wsdot.wa.gov/nw/005vc13921.jpg",
    "ImageWidth": 335,
    "IsActive": true,
    "OwnerURL": "",
    "Region": "NW",
    "SortOrder": 1000,
    "Title": "I-5 at MP 139.2: Emerald St"
  },
  {
    "id": 1393,
    "CameraLocation": "null|B|47.25749|-122.329724|139|I-5",
    "CameraOwner": "",
    "Description": "",
    "DisplayLatitude": 47.25749,
    "DisplayLongitude": -122.329724,
    "ImageHeight": 249,
    "url": "https://images.wsdot.wa.gov/nw/005vc13951.jpg",
    "ImageWidth": 335,
    "IsActive": true,
    "OwnerURL": "",
    "Region": "NW",
    "SortOrder": 1000,
    "Title": "I-5 at MP 139.5: Pierce Co Line"
  },
  {
    "id": 1310,
    "CameraLocation": "null|B|47.265241|-122.321872|140|I-5",
    "CameraOwner": "",
    "Description": "",
    "DisplayLatitude": 47.265241,
    "DisplayLongitude": -122.321872,
    "ImageHeight": 249,
    "url": "https://images.wsdot.wa.gov/nw/005vc14016.jpg",
    "ImageWidth": 335,
    "IsActive": true,
    "OwnerURL": "",
    "Region": "NW",
    "SortOrder": 1000,
    "Title": "I-5 at MP 140.1: S 375th St"
  },
  {
    "id": 9273,
    "CameraLocation": "null|B|47.2711|-122.315867|140|I-5",
    "CameraOwner": "",
    "Description": "",
    "DisplayLatitude": 47.2711,
    "DisplayLongitude": -122.315867,
    "ImageHeight": 249,
    "url": "https://images.wsdot.wa.gov/nw/005vc14065.jpg",
    "ImageWidth": 335,
    "IsActive": true,
    "OwnerURL": "",
    "Region": "NW",
    "SortOrder": 1000,
    "Title": "I-5 at MP 140.6: Weigh Station"
  },
  {
    "id": 1313,
    "CameraLocation": "null|B|47.279068|-122.310502|141|I-5",
    "CameraOwner": "",
    "Description": "",
    "DisplayLatitude": 47.279068,
    "DisplayLongitude": -122.310502,
    "ImageHeight": 249,
    "url": "https://images.wsdot.wa.gov/nw/005vc14126.jpg",
    "ImageWidth": 335,
    "IsActive": true,
    "OwnerURL": "",
    "Region": "NW",
    "SortOrder": 1000,
    "Title": "I-5 at MP 141.2: Enchanted Pkwy"
  },
  {
    "id": 9503,
    "CameraLocation": "null|B|47.287781|-122.306972|141|I-5",
    "CameraOwner": "",
    "Description": "",
    "DisplayLatitude": 47.287781,
    "DisplayLongitude": -122.306972,
    "ImageHeight": 249,
    "url": "https://images.wsdot.wa.gov/nw/005vc14188.jpg",
    "ImageWidth": 335,
    "IsActive": true,
    "OwnerURL": "",
    "Region": "NW",
    "SortOrder": 1000,
    "Title": "I-5 at MP 141.8: SR 18 Interchange, S"
  },
  {
    "id": 9504,
    "CameraLocation": "null|B|47.288839|-122.306613|141|I-5",
    "CameraOwner": "",
    "Description": "",
    "DisplayLatitude": 47.288839,
    "DisplayLongitude": -122.306613,
    "ImageHeight": 249,
    "url": "https://images.wsdot.wa.gov/nw/005vc14196.jpg",
    "ImageWidth": 335,
    "IsActive": true,
    "OwnerURL": "",
    "Region": "NW",
    "SortOrder": 1000,
    "Title": "I-5 at MP 141.9: SR 18 Interchange, W"
  },
  {
    "id": 1309,
    "CameraLocation": "null|B|47.290213|-122.306145|142|I-5",
    "CameraOwner": "",
    "Description": "",
    "DisplayLatitude": 47.290213,
    "DisplayLongitude": -122.306145,
    "ImageHeight": 249,
    "url": "https://images.wsdot.wa.gov/nw/005vc14205.jpg",
    "ImageWidth": 335,
    "IsActive": true,
    "OwnerURL": "",
    "Region": "NW",
    "SortOrder": 1000,
    "Title": "I-5 at MP 142: SR 18 Interchange"
  },
  {
    "id": 1394,
    "CameraLocation": "null|B|47.303448|-122.301713|143|I-5",
    "CameraOwner": "",
    "Description": "",
    "DisplayLatitude": 47.303448,
    "DisplayLongitude": -122.301713,
    "ImageHeight": 249,
    "url": "https://images.wsdot.wa.gov/nw/005vc14300.jpg",
    "ImageWidth": 335,
    "IsActive": true,
    "OwnerURL": "",
    "Region": "NW",
    "SortOrder": 1000,
    "Title": "I-5 at MP 143: S 333rd St"
  },
  {
    "id": 1012,
    "CameraLocation": "null|B|47.314562|-122.297437|143|I-5",
    "CameraOwner": "",
    "Description": "",
    "DisplayLatitude": 47.314562,
    "DisplayLongitude": -122.297437,
    "ImageHeight": 249,
    "url": "https://images.wsdot.wa.gov/nw/005vc14379.jpg",
    "ImageWidth": 335,
    "IsActive": true,
    "OwnerURL": "",
    "Region": "NW",
    "SortOrder": 1000,
    "Title": "I-5 at MP 143.7: S 320th St"
  },
  {
    "id": 9505,
    "CameraLocation": "null|B|47.315816|-122.296923|143|I-5",
    "CameraOwner": "",
    "Description": "",
    "DisplayLatitude": 47.315816,
    "DisplayLongitude": -122.296923,
    "ImageHeight": 249,
    "url": "https://images.wsdot.wa.gov/nw/005vc14388.jpg",
    "ImageWidth": 335,
    "IsActive": true,
    "OwnerURL": "",
    "Region": "NW",
    "SortOrder": 1000,
    "Title": "I-5 at MP 143.8: S 320th St, Ramps"
  },
  {
    "id": 1395,
    "CameraLocation": "null|B|47.317485|-122.296252|144|I-5",
    "CameraOwner": "",
    "Description": "",
    "DisplayLatitude": 47.317485,
    "DisplayLongitude": -122.296252,
    "ImageHeight": 249,
    "url": "https://images.wsdot.wa.gov/nw/005vc14400.jpg",
    "ImageWidth": 335,
    "IsActive": true,
    "OwnerURL": "",
    "Region": "NW",
    "SortOrder": 1000,
    "Title": "I-5 at MP 144: S 317th St"
  },
  {
    "id": 1396,
    "CameraLocation": "null|B|47.326054|-122.293994|144|I-5",
    "CameraOwner": "",
    "Description": "",
    "DisplayLatitude": 47.326054,
    "DisplayLongitude": -122.293994,
    "ImageHeight": 249,
    "url": "https://images.wsdot.wa.gov/nw/005vc14460.jpg",
    "ImageWidth": 335,
    "IsActive": true,
    "OwnerURL": "",
    "Region": "NW",
    "SortOrder": 1000,
    "Title": "I-5 at MP 144.6: S 308th St"
  },
  {
    "id": 1397,
    "CameraLocation": "null|B|47.336258|-122.293127|145|I-5",
    "CameraOwner": "",
    "Description": "",
    "DisplayLatitude": 47.336258,
    "DisplayLongitude": -122.293127,
    "ImageHeight": 249,
    "url": "https://images.wsdot.wa.gov/nw/005vc14531.jpg",
    "ImageWidth": 335,
    "IsActive": true,
    "OwnerURL": "",
    "Region": "NW",
    "SortOrder": 1000,
    "Title": "I-5 at MP 145.3: S 296th St"
  },
  {
    "id": 1013,
    "CameraLocation": "null|B|47.346915|-122.293069|146|I-5",
    "CameraOwner": "",
    "Description": "",
    "DisplayLatitude": 47.346915,
    "DisplayLongitude": -122.293069,
    "ImageHeight": 249,
    "url": "https://images.wsdot.wa.gov/nw/005vc14605.jpg",
    "ImageWidth": 335,
    "IsActive": true,
    "OwnerURL": "",
    "Region": "NW",
    "SortOrder": 1000,
    "Title": "I-5 at MP 146: S 288th St"
  },
  {
    "id": 1398,
    "CameraLocation": "null|B|47.357842|-122.296231|146|I-5",
    "CameraOwner": "",
    "Description": "",
    "DisplayLatitude": 47.357842,
    "DisplayLongitude": -122.296231,
    "ImageHeight": 249,
    "url": "https://images.wsdot.wa.gov/nw/005vc14683.jpg",
    "ImageWidth": 335,
    "IsActive": true,
    "OwnerURL": "",
    "Region": "NW",
    "SortOrder": 1000,
    "Title": "I-5 at MP 146.8: S 272nd St"
  },
  {
    "id": 1014,
    "CameraLocation": "null|B|47.370687|-122.292991|147|I-5",
    "CameraOwner": "",
    "Description": "",
    "DisplayLatitude": 47.370687,
    "DisplayLongitude": -122.292991,
    "ImageHeight": 249,
    "url": "https://images.wsdot.wa.gov/nw/005vc14772.jpg",
    "ImageWidth": 335,
    "IsActive": true,
    "OwnerURL": "",
    "Region": "NW",
    "SortOrder": 1000,
    "Title": "I-5 at MP 147.7: S 260th St"
  },
  {
    "id": 1399,
    "CameraLocation": "null|B|47.380906|-122.290411|148|I-5",
    "CameraOwner": "",
    "Description": "",
    "DisplayLatitude": 47.380906,
    "DisplayLongitude": -122.290411,
    "ImageHeight": 249,
    "url": "https://images.wsdot.wa.gov/nw/005vc14844.jpg",
    "ImageWidth": 335,
    "IsActive": true,
    "OwnerURL": "",
    "Region": "NW",
    "SortOrder": 1000,
    "Title": "I-5 at MP 148.4: S 248th St"
  },
  {
    "id": 1015,
    "CameraLocation": "null|B|47.391474|-122.290695|149|I-5",
    "CameraOwner": "",
    "Description": "",
    "DisplayLatitude": 47.391474,
    "DisplayLongitude": -122.290695,
    "ImageHeight": 249,
    "url": "https://images.wsdot.wa.gov/nw/005vc14918.jpg",
    "ImageWidth": 335,
    "IsActive": true,
    "OwnerURL": "",
    "Region": "NW",
    "SortOrder": 1000,
    "Title": "I-5 at MP 149.1: SR 516 Interchange"
  },
  {
    "id": 1400,
    "CameraLocation": "null|B|47.408608|-122.291668|150|I-5",
    "CameraOwner": "",
    "Description": "",
    "DisplayLatitude": 47.408608,
    "DisplayLongitude": -122.291668,
    "ImageHeight": 249,
    "url": "https://images.wsdot.wa.gov/nw/005vc15036.jpg",
    "ImageWidth": 335,
    "IsActive": true,
    "OwnerURL": "",
    "Region": "NW",
    "SortOrder": 1000,
    "Title": "I-5 at MP 150.3: S 216th St"
  },
  {
    "id": 1016,
    "CameraLocation": "null|B|47.421144|-122.286042|151|I-5",
    "CameraOwner": "",
    "Description": "",
    "DisplayLatitude": 47.421144,
    "DisplayLongitude": -122.286042,
    "ImageHeight": 249,
    "url": "https://images.wsdot.wa.gov/nw/005vc15128.jpg",
    "ImageWidth": 335,
    "IsActive": true,
    "OwnerURL": "",
    "Region": "NW",
    "SortOrder": 1000,
    "Title": "I-5 at MP 151.2: S 200th St"
  },
  {
    "id": 1017,
    "CameraLocation": "null|B|47.431916|-122.27126|152|I-5",
    "CameraOwner": "",
    "Description": "",
    "DisplayLatitude": 47.431916,
    "DisplayLongitude": -122.27126,
    "ImageHeight": 249,
    "url": "https://images.wsdot.wa.gov/nw/005vc15230.jpg",
    "ImageWidth": 335,
    "IsActive": true,
    "OwnerURL": "",
    "Region": "NW",
    "SortOrder": 1000,
    "Title": "I-5 at MP 152.3: S 188th St"
  },
  {
    "id": 1018,
    "CameraLocation": "null|B|47.4438|-122.2682|153|I-5",
    "CameraOwner": "",
    "Description": "",
    "DisplayLatitude": 47.4438,
    "DisplayLongitude": -122.2682,
    "ImageHeight": 249,
    "url": "https://images.wsdot.wa.gov/nw/005vc15315.jpg",
    "ImageWidth": 335,
    "IsActive": true,
    "OwnerURL": "",
    "Region": "NW",
    "SortOrder": 1000,
    "Title": "I-5 at MP 153.1: S 178th St"
  },
  {
    "id": 1401,
    "CameraLocation": "null|B|47.457242|-122.263991|154|I-5",
    "CameraOwner": "",
    "Description": "",
    "DisplayLatitude": 47.457242,
    "DisplayLongitude": -122.263991,
    "ImageHeight": 249,
    "url": "https://images.wsdot.wa.gov/nw/005vc15410.jpg",
    "ImageWidth": 335,
    "IsActive": true,
    "OwnerURL": "",
    "Region": "NW",
    "SortOrder": 1000,
    "Title": "I-5 at MP 154.1: Klickitat Rd"
  },
  {
    "id": 9507,
    "CameraLocation": "null|B|47.463126|-122.264345|154|I-5",
    "CameraOwner": "",
    "Description": "",
    "DisplayLatitude": 47.463126,
    "DisplayLongitude": -122.264345,
    "ImageHeight": 249,
    "url": "https://images.wsdot.wa.gov/nw/005vc15452.jpg",
    "ImageWidth": 335,
    "IsActive": true,
    "OwnerURL": "",
    "Region": "NW",
    "SortOrder": 1000,
    "Title": "I-5 at MP 154.5: SR 518 Interchange"
  },
  {
    "id": 9054,
    "CameraLocation": "null|B|47.463236|-122.26443|154|I-5",
    "CameraOwner": "",
    "Description": "",
    "DisplayLatitude": 47.463236,
    "DisplayLongitude": -122.26443,
    "ImageHeight": 249,
    "url": "https://images.wsdot.wa.gov/nw/005vc15453.jpg",
    "ImageWidth": 335,
    "IsActive": true,
    "OwnerURL": "",
    "Region": "NW",
    "SortOrder": 1000,
    "Title": "I-5 at MP 154.5: Southcenter"
  },
  {
    "id": 1402,
    "CameraLocation": "null|B|47.474234|-122.2715|155|I-5",
    "CameraOwner": "",
    "Description": "",
    "DisplayLatitude": 47.474234,
    "DisplayLongitude": -122.2715,
    "ImageHeight": 249,
    "url": "https://images.wsdot.wa.gov/nw/005vc15531.jpg",
    "ImageWidth": 335,
    "IsActive": true,
    "OwnerURL": "",
    "Region": "NW",
    "SortOrder": 1000,
    "Title": "I-5 at MP 155.3: S 144th St"
  },
  {
    "id": 1020,
    "CameraLocation": "null|B|47.469947|-122.268353|155|I-5",
    "CameraOwner": "",
    "Description": "",
    "DisplayLatitude": 47.469947,
    "DisplayLongitude": -122.268353,
    "ImageHeight": 249,
    "url": "https://images.wsdot.wa.gov/nw/005vc15591.jpg",
    "ImageWidth": 335,
    "IsActive": true,
    "OwnerURL": "",
    "Region": "NW",
    "SortOrder": 1000,
    "Title": "I-5 at MP 155.9: SR 599 Interchange"
  },
  {
    "id": 1021,
    "CameraLocation": "null|B|47.491137|-122.264274|156|I-5",
    "CameraOwner": "",
    "Description": "",
    "DisplayLatitude": 47.491137,
    "DisplayLongitude": -122.264274,
    "ImageHeight": 249,
    "url": "https://images.wsdot.wa.gov/nw/005vc15664.jpg",
    "ImageWidth": 335,
    "IsActive": true,
    "OwnerURL": "",
    "Region": "NW",
    "SortOrder": 1000,
    "Title": "I-5 at MP 156.6: Duwamish River"
  },
  {
    "id": 9274,
    "CameraLocation": "null|B|47.497506|-122.271634|157|I-5",
    "CameraOwner": "",
    "Description": "",
    "DisplayLatitude": 47.497506,
    "DisplayLongitude": -122.271634,
    "ImageHeight": 249,
    "url": "https://images.wsdot.wa.gov/nw/005vc15718.jpg",
    "ImageWidth": 335,
    "IsActive": true,
    "OwnerURL": "",
    "Region": "NW",
    "SortOrder": 1000,
    "Title": "I-5 at MP 157.1: MLK Jr Way S"
  },
  {
    "id": 9508,
    "CameraLocation": "null|B|47.499523|-122.273771|157|I-5",
    "CameraOwner": "",
    "Description": "",
    "DisplayLatitude": 47.499523,
    "DisplayLongitude": -122.273771,
    "ImageHeight": 249,
    "url": "https://images.wsdot.wa.gov/nw/005vc15735.jpg",
    "ImageWidth": 335,
    "IsActive": true,
    "OwnerURL": "",
    "Region": "NW",
    "SortOrder": 1000,
    "Title": "I-5 at MP 157.3: MLK Jr Way, N"
  },
  {
    "id": 9509,
    "CameraLocation": "null|B|47.505767|-122.279828|157|I-5",
    "CameraOwner": "",
    "Description": "",
    "DisplayLatitude": 47.505767,
    "DisplayLongitude": -122.279828,
    "ImageHeight": 249,
    "url": "https://images.wsdot.wa.gov/nw/005vc15785.jpg",
    "ImageWidth": 335,
    "IsActive": true,
    "OwnerURL": "",
    "Region": "NW",
    "SortOrder": 1000,
    "Title": "I-5 at MP 157.8: Boeing Access Rd, S"
  },
  {
    "id": 1022,
    "CameraLocation": "null|B|47.508346|-122.281796|158|I-5",
    "CameraOwner": "",
    "Description": "",
    "DisplayLatitude": 47.508346,
    "DisplayLongitude": -122.281796,
    "ImageHeight": 249,
    "url": "https://images.wsdot.wa.gov/nw/005vc15805.jpg",
    "ImageWidth": 335,
    "IsActive": true,
    "OwnerURL": "",
    "Region": "NW",
    "SortOrder": 1000,
    "Title": "I-5 at MP 158: Boeing Access Rd North"
  },
  {
    "id": 9510,
    "CameraLocation": "null|B|47.519045|-122.289227|158|I-5",
    "CameraOwner": "",
    "Description": "",
    "DisplayLatitude": 47.519045,
    "DisplayLongitude": -122.289227,
    "ImageHeight": 249,
    "url": "https://images.wsdot.wa.gov/nw/005vc15887.jpg",
    "ImageWidth": 335,
    "IsActive": true,
    "OwnerURL": "",
    "Region": "NW",
    "SortOrder": 1000,
    "Title": "I-5 at MP 158.8: S Benefit St"
  },
  {
    "id": 9511,
    "CameraLocation": "null|B|47.523662|-122.291139|159|I-5",
    "CameraOwner": "",
    "Description": "",
    "DisplayLatitude": 47.523662,
    "DisplayLongitude": -122.291139,
    "ImageHeight": 249,
    "url": "https://images.wsdot.wa.gov/nw/005vc15920.jpg",
    "ImageWidth": 335,
    "IsActive": true,
    "OwnerURL": "",
    "Region": "NW",
    "SortOrder": 1000,
    "Title": "I-5 at MP 159.2: S Henderson St"
  },
  {
    "id": 1023,
    "CameraLocation": "null|B|47.5306|-122.2938|159|I-5",
    "CameraOwner": "",
    "Description": "",
    "DisplayLatitude": 47.5306,
    "DisplayLongitude": -122.2938,
    "ImageHeight": 249,
    "url": "https://images.wsdot.wa.gov/nw/005vc15970.jpg",
    "ImageWidth": 335,
    "IsActive": true,
    "OwnerURL": "",
    "Region": "NW",
    "SortOrder": 1000,
    "Title": "I-5 at MP 159.7: S Rose St (Mid-Boeing Field)"
  },
  {
    "id": 9512,
    "CameraLocation": "null|B|47.534762|-122.295921|160|I-5",
    "CameraOwner": "",
    "Description": "",
    "DisplayLatitude": 47.534762,
    "DisplayLongitude": -122.295921,
    "ImageHeight": 249,
    "url": "https://images.wsdot.wa.gov/nw/005vc16000.jpg",
    "ImageWidth": 335,
    "IsActive": true,
    "OwnerURL": "",
    "Region": "NW",
    "SortOrder": 1000,
    "Title": "I-5 at MP 160: S Austin St"
  },
  {
    "id": 1403,
    "CameraLocation": "null|B|47.53535|-122.29685|160|I-5",
    "CameraOwner": "",
    "Description": "",
    "DisplayLatitude": 47.53535,
    "DisplayLongitude": -122.29685,
    "ImageHeight": 249,
    "url": "https://images.wsdot.wa.gov/nw/005vc16006.jpg",
    "ImageWidth": 335,
    "IsActive": true,
    "OwnerURL": "",
    "Region": "NW",
    "SortOrder": 1000,
    "Title": "I-5 at MP 160: S Webster St"
  },
  {
    "id": 9513,
    "CameraLocation": "null|B|47.54057|-122.302017|160|I-5",
    "CameraOwner": "",
    "Description": "",
    "DisplayLatitude": 47.54057,
    "DisplayLongitude": -122.302017,
    "ImageHeight": 249,
    "url": "https://images.wsdot.wa.gov/nw/005vc16049.jpg",
    "ImageWidth": 335,
    "IsActive": true,
    "OwnerURL": "",
    "Region": "NW",
    "SortOrder": 1000,
    "Title": "I-5 at MP 160.4: S Willow St"
  },
  {
    "id": 9514,
    "CameraLocation": "null|B|47.546128|-122.308131|160|I-5",
    "CameraOwner": "",
    "Description": "",
    "DisplayLatitude": 47.546128,
    "DisplayLongitude": -122.308131,
    "ImageHeight": 249,
    "url": "https://images.wsdot.wa.gov/nw/005vc16097.jpg",
    "ImageWidth": 335,
    "IsActive": true,
    "OwnerURL": "",
    "Region": "NW",
    "SortOrder": 1000,
    "Title": "I-5 at MP 160.9: S Graham St"
  },
  {
    "id": 1024,
    "CameraLocation": "null|B|47.548537|-122.31126|161|I-5",
    "CameraOwner": "",
    "Description": "",
    "DisplayLatitude": 47.548537,
    "DisplayLongitude": -122.31126,
    "ImageHeight": 249,
    "url": "https://images.wsdot.wa.gov/nw/005vc16123.jpg",
    "ImageWidth": 335,
    "IsActive": true,
    "OwnerURL": "",
    "Region": "NW",
    "SortOrder": 1000,
    "Title": "I-5 at MP 161.2: Albro Pl"
  },
  {
    "id": 9055,
    "CameraLocation": "null|B|47.557384|-122.320314|161|I-5",
    "CameraOwner": "",
    "Description": "",
    "DisplayLatitude": 47.557384,
    "DisplayLongitude": -122.320314,
    "ImageHeight": 249,
    "url": "https://images.wsdot.wa.gov/nw/005vc16195.jpg",
    "ImageWidth": 335,
    "IsActive": true,
    "OwnerURL": "",
    "Region": "NW",
    "SortOrder": 1000,
    "Title": "I-5 at MP 161.9: S Hudson St"
  },
  {
    "id": 9515,
    "CameraLocation": "null|B|47.558499|-122.320927|162|I-5",
    "CameraOwner": "",
    "Description": "",
    "DisplayLatitude": 47.558499,
    "DisplayLongitude": -122.320927,
    "ImageHeight": 249,
    "url": "https://images.wsdot.wa.gov/nw/005vc16204.jpg",
    "ImageWidth": 335,
    "IsActive": true,
    "OwnerURL": "",
    "Region": "NW",
    "SortOrder": 1000,
    "Title": "I-5 at MP 162: S Ferdinand St"
  },
  {
    "id": 9056,
    "CameraLocation": "null|B|47.558604|-122.320974|162|I-5",
    "CameraOwner": "",
    "Description": "",
    "DisplayLatitude": 47.558604,
    "DisplayLongitude": -122.320974,
    "ImageHeight": 249,
    "url": "https://images.wsdot.wa.gov/nw/005vc16237.jpg",
    "ImageWidth": 335,
    "IsActive": true,
    "OwnerURL": "",
    "Region": "NW",
    "SortOrder": 1000,
    "Title": "I-5 at MP 162.3: S. Oregon St"
  },
  {
    "id": 9355,
    "CameraLocation": "null|B|47.570437|-122.319961|162|I-5",
    "CameraOwner": "",
    "Description": "",
    "DisplayLatitude": 47.570437,
    "DisplayLongitude": -122.319961,
    "ImageHeight": 249,
    "url": "https://images.wsdot.wa.gov/nw/005vc16287.jpg",
    "ImageWidth": 335,
    "IsActive": true,
    "OwnerURL": "",
    "Region": "NW",
    "SortOrder": 1000,
    "Title": "I-5 at MP 162.8: S. Court St"
  },
  {
    "id": 1025,
    "CameraLocation": "null|B|47.571871|-122.32341|162|I-5",
    "CameraOwner": "",
    "Description": "",
    "DisplayLatitude": 47.571871,
    "DisplayLongitude": -122.32341,
    "ImageHeight": 249,
    "url": "https://images.wsdot.wa.gov/nw/005vc16297.jpg",
    "ImageWidth": 335,
    "IsActive": true,
    "OwnerURL": "",
    "Region": "NW",
    "SortOrder": 1000,
    "Title": "I-5 at MP 162.9: Spokane St"
  },
  {
    "id": 9356,
    "CameraLocation": "null|B|47.578787|-122.319016|163|I-5",
    "CameraOwner": "",
    "Description": "",
    "DisplayLatitude": 47.578787,
    "DisplayLongitude": -122.319016,
    "ImageHeight": 249,
    "url": "https://images.wsdot.wa.gov/nw/005vc16342.jpg",
    "ImageWidth": 335,
    "IsActive": true,
    "OwnerURL": "",
    "Region": "NW",
    "SortOrder": 1000,
    "Title": "I-5 at MP 163.4: S. Forest St"
  },
  {
    "id": 9516,
    "CameraLocation": "null|B|47.58353|-122.319798|163|I-5",
    "CameraOwner": "",
    "Description": "",
    "DisplayLatitude": 47.58353,
    "DisplayLongitude": -122.319798,
    "ImageHeight": 249,
    "url": "https://images.wsdot.wa.gov/nw/005vc16377.jpg",
    "ImageWidth": 335,
    "IsActive": true,
    "OwnerURL": "",
    "Region": "NW",
    "SortOrder": 1000,
    "Title": "I-5 at MP 163.7: S Walker St"
  },
  {
    "id": 1026,
    "CameraLocation": "null|B|47.58611|-122.319456|163|I-5",
    "CameraOwner": "",
    "Description": "",
    "DisplayLatitude": 47.58611,
    "DisplayLongitude": -122.319456,
    "ImageHeight": 249,
    "url": "https://images.wsdot.wa.gov/nw/005vc16396.jpg",
    "ImageWidth": 335,
    "IsActive": true,
    "OwnerURL": "",
    "Region": "NW",
    "SortOrder": 1000,
    "Title": "I-5 at MP 163.9: S Holgate St"
  },
  {
    "id": 9057,
    "CameraLocation": "null|B|47.592533|-122.320852|164|I-5",
    "CameraOwner": "",
    "Description": "",
    "DisplayLatitude": 47.592533,
    "DisplayLongitude": -122.320852,
    "ImageHeight": 249,
    "url": "https://images.wsdot.wa.gov/nw/005vc16440.jpg",
    "ImageWidth": 335,
    "IsActive": true,
    "OwnerURL": "",
    "Region": "NW",
    "SortOrder": 1000,
    "Title": "I-5 at MP 164.4: Judkins St"
  },
  {
    "id": 1027,
    "CameraLocation": "null|B|47.586164|-122.32005|164|I-5",
    "CameraOwner": "",
    "Description": "",
    "DisplayLatitude": 47.586164,
    "DisplayLongitude": -122.32005,
    "ImageHeight": 249,
    "url": "https://images.wsdot.wa.gov/nw/090vc00245.jpg",
    "ImageWidth": 335,
    "IsActive": true,
    "OwnerURL": "",
    "Region": "NW",
    "SortOrder": 1000,
    "Title": "I-5 at MP 164: I-90 Interchange (8th Ave S)"
  },
  {
    "id": 9517,
    "CameraLocation": "null|B|47.595963|-122.320234|164|I-5",
    "CameraOwner": "",
    "Description": "",
    "DisplayLatitude": 47.595963,
    "DisplayLongitude": -122.320234,
    "ImageHeight": 249,
    "url": "https://images.wsdot.wa.gov/nw/005vc16465.jpg",
    "ImageWidth": 335,
    "IsActive": true,
    "OwnerURL": "",
    "Region": "NW",
    "SortOrder": 1000,
    "Title": "I-5 at MP 164.6: S Dearborn St"
  },
  {
    "id": 1028,
    "CameraLocation": "null|B|47.6014|-122.3242|165|I-5",
    "CameraOwner": "",
    "Description": "",
    "DisplayLatitude": 47.6014,
    "DisplayLongitude": -122.3242,
    "ImageHeight": 249,
    "url": "https://images.wsdot.wa.gov/nw/005vc16508.jpg",
    "ImageWidth": 335,
    "IsActive": true,
    "OwnerURL": "",
    "Region": "NW",
    "SortOrder": 1000,
    "Title": "I-5 at MP 165: Yesler Way"
  },
  {
    "id": 9518,
    "CameraLocation": "null|B|47.605194|-122.328059|165|I-5",
    "CameraOwner": "",
    "Description": "",
    "DisplayLatitude": 47.605194,
    "DisplayLongitude": -122.328059,
    "ImageHeight": 249,
    "url": "https://images.wsdot.wa.gov/nw/005vc16540.jpg",
    "ImageWidth": 335,
    "IsActive": true,
    "OwnerURL": "",
    "Region": "NW",
    "SortOrder": 1000,
    "Title": "I-5 at MP 165.4: 5th Ave/Cherry"
  },
  {
    "id": 9519,
    "CameraLocation": "null|B|47.605762|-122.328782|165|I-5",
    "CameraOwner": "",
    "Description": "",
    "DisplayLatitude": 47.605762,
    "DisplayLongitude": -122.328782,
    "ImageHeight": 249,
    "url": "https://images.wsdot.wa.gov/nw/005vc16545.jpg",
    "ImageWidth": 335,
    "IsActive": true,
    "OwnerURL": "",
    "Region": "NW",
    "SortOrder": 1000,
    "Title": "I-5 at MP 165.4: Columbia St Express Lanes"
  },
  {
    "id": 9520,
    "CameraLocation": "null|B|47.606257|-122.328959|165|I-5",
    "CameraOwner": "",
    "Description": "",
    "DisplayLatitude": 47.606257,
    "DisplayLongitude": -122.328959,
    "ImageHeight": 249,
    "url": "https://images.wsdot.wa.gov/nw/005vc16547.jpg",
    "ImageWidth": 335,
    "IsActive": true,
    "OwnerURL": "",
    "Region": "NW",
    "SortOrder": 1000,
    "Title": "I-5 at MP 165.4: 5th Ave/Columbia"
  },
  {
    "id": 9521,
    "CameraLocation": "null|B|47.606585|-122.329243|165|I-5",
    "CameraOwner": "",
    "Description": "",
    "DisplayLatitude": 47.606585,
    "DisplayLongitude": -122.329243,
    "ImageHeight": 249,
    "url": "https://images.wsdot.wa.gov/nw/005vc16550.jpg",
    "ImageWidth": 335,
    "IsActive": true,
    "OwnerURL": "",
    "Region": "NW",
    "SortOrder": 1000,
    "Title": "I-5 at MP 165.5: Marion St"
  },
  {
    "id": 9522,
    "CameraLocation": "null|B|47.607183|-122.329831|165|I-5",
    "CameraOwner": "",
    "Description": "",
    "DisplayLatitude": 47.607183,
    "DisplayLongitude": -122.329831,
    "ImageHeight": 249,
    "url": "https://images.wsdot.wa.gov/nw/005vc16556.jpg",
    "ImageWidth": 335,
    "IsActive": true,
    "OwnerURL": "",
    "Region": "NW",
    "SortOrder": 1000,
    "Title": "I-5 at MP 165.5: Madison St Express Lanes"
  },
  {
    "id": 9523,
    "CameraLocation": "null|B|47.608251|-122.330516|165|I-5",
    "CameraOwner": "",
    "Description": "",
    "DisplayLatitude": 47.608251,
    "DisplayLongitude": -122.330516,
    "ImageHeight": 249,
    "url": "https://images.wsdot.wa.gov/nw/005vc16563.jpg",
    "ImageWidth": 335,
    "IsActive": true,
    "OwnerURL": "",
    "Region": "NW",
    "SortOrder": 1000,
    "Title": "I-5 at MP 165.6: Seneca St"
  },
  {
    "id": 9524,
    "CameraLocation": "null|B|47.608348|-122.330633|165|I-5",
    "CameraOwner": "",
    "Description": "",
    "DisplayLatitude": 47.608348,
    "DisplayLongitude": -122.330633,
    "ImageHeight": 249,
    "url": "https://images.wsdot.wa.gov/nw/005vc16565.jpg",
    "ImageWidth": 335,
    "IsActive": true,
    "OwnerURL": "",
    "Region": "NW",
    "SortOrder": 1000,
    "Title": "I-5 at MP 165.6: Seneca St Express Lanes"
  },
  {
    "id": 9525,
    "CameraLocation": "null|B|47.609238|-122.330911|165|I-5",
    "CameraOwner": "",
    "Description": "",
    "DisplayLatitude": 47.609238,
    "DisplayLongitude": -122.330911,
    "ImageHeight": 249,
    "url": "https://images.wsdot.wa.gov/nw/005vc16571.jpg",
    "ImageWidth": 335,
    "IsActive": true,
    "OwnerURL": "",
    "Region": "NW",
    "SortOrder": 1000,
    "Title": "I-5 at MP 165.7: University St, SB"
  },
  {
    "id": 9526,
    "CameraLocation": "null|B|47.609614|-122.330982|165|I-5",
    "CameraOwner": "",
    "Description": "",
    "DisplayLatitude": 47.609614,
    "DisplayLongitude": -122.330982,
    "ImageHeight": 249,
    "url": "https://images.wsdot.wa.gov/nw/005vc16574.jpg",
    "ImageWidth": 335,
    "IsActive": true,
    "OwnerURL": "",
    "Region": "NW",
    "SortOrder": 1000,
    "Title": "I-5 at MP 165.7: University St Ramp"
  },
  {
    "id": 9527,
    "CameraLocation": "null|B|47.610567|-122.330978|165|I-5",
    "CameraOwner": "",
    "Description": "",
    "DisplayLatitude": 47.610567,
    "DisplayLongitude": -122.330978,
    "ImageHeight": 249,
    "url": "https://images.wsdot.wa.gov/nw/005vc16580.jpg",
    "ImageWidth": 335,
    "IsActive": true,
    "OwnerURL": "",
    "Region": "NW",
    "SortOrder": 1000,
    "Title": "I-5 at MP 165.8: University St, NB"
  },
  {
    "id": 9528,
    "CameraLocation": "null|B|47.611605|-122.330735|165|I-5",
    "CameraOwner": "",
    "Description": "",
    "DisplayLatitude": 47.611605,
    "DisplayLongitude": -122.330735,
    "ImageHeight": 249,
    "url": "https://images.wsdot.wa.gov/nw/005vc16588.jpg",
    "ImageWidth": 335,
    "IsActive": true,
    "OwnerURL": "",
    "Region": "NW",
    "SortOrder": 1000,
    "Title": "I-5 at MP 165.8: Union St Express Lanes"
  },
  {
    "id": 9529,
    "CameraLocation": "null|B|47.612874|-122.330176|165|I-5",
    "CameraOwner": "",
    "Description": "",
    "DisplayLatitude": 47.612874,
    "DisplayLongitude": -122.330176,
    "ImageHeight": 249,
    "url": "https://images.wsdot.wa.gov/nw/005vc16596.jpg",
    "ImageWidth": 335,
    "IsActive": true,
    "OwnerURL": "",
    "Region": "NW",
    "SortOrder": 1000,
    "Title": "I-5 at MP 165.9: Pike St/9th Ave"
  },
  {
    "id": 9530,
    "CameraLocation": "null|B|47.613015|-122.330116|165|I-5",
    "CameraOwner": "",
    "Description": "",
    "DisplayLatitude": 47.613015,
    "DisplayLongitude": -122.330116,
    "ImageHeight": 249,
    "url": "https://images.wsdot.wa.gov/nw/005vc16597.jpg",
    "ImageWidth": 335,
    "IsActive": true,
    "OwnerURL": "",
    "Region": "NW",
    "SortOrder": 1000,
    "Title": "I-5 at MP 165.9: Pike St, SB"
  },
  {
    "id": 9531,
    "CameraLocation": "null|B|47.613153|-122.330065|165|I-5",
    "CameraOwner": "",
    "Description": "",
    "DisplayLatitude": 47.613153,
    "DisplayLongitude": -122.330065,
    "ImageHeight": 249,
    "url": "https://images.wsdot.wa.gov/nw/005vc16598.jpg",
    "ImageWidth": 335,
    "IsActive": true,
    "OwnerURL": "",
    "Region": "NW",
    "SortOrder": 1000,
    "Title": "I-5 at MP 165.9: Pike St, NB"
  },
  {
    "id": 9532,
    "CameraLocation": "null|B|47.61331|-122.330005|165|I-5",
    "CameraOwner": "",
    "Description": "",
    "DisplayLatitude": 47.61331,
    "DisplayLongitude": -122.330005,
    "ImageHeight": 249,
    "url": "https://images.wsdot.wa.gov/nw/005vc16599.jpg",
    "ImageWidth": 335,
    "IsActive": true,
    "OwnerURL": "",
    "Region": "NW",
    "SortOrder": 1000,
    "Title": "I-5 at MP 165.9: 9th Ave at Pike"
  },
  {
    "id": 9533,
    "CameraLocation": "null|B|47.61356|-122.32999|166|I-5",
    "CameraOwner": "",
    "Description": "",
    "DisplayLatitude": 47.61356,
    "DisplayLongitude": -122.32999,
    "ImageHeight": 249,
    "url": "https://images.wsdot.wa.gov/nw/005vc16602.jpg",
    "ImageWidth": 335,
    "IsActive": true,
    "OwnerURL": "",
    "Region": "NW",
    "SortOrder": 1000,
    "Title": "I-5 at MP 166: Pike St Express Lanes"
  },
  {
    "id": 1029,
    "CameraLocation": "null|B|47.614561|-122.329847|166|I-5",
    "CameraOwner": "",
    "Description": "",
    "DisplayLatitude": 47.614561,
    "DisplayLongitude": -122.329847,
    "ImageHeight": 249,
    "url": "https://images.wsdot.wa.gov/nw/005vc16607.jpg",
    "ImageWidth": 335,
    "IsActive": true,
    "OwnerURL": "",
    "Region": "NW",
    "SortOrder": 1000,
    "Title": "I-5 at MP 166: Pine St"
  },
  {
    "id": 9534,
    "CameraLocation": "null|B|47.614956|-122.329452|166|I-5",
    "CameraOwner": "",
    "Description": "",
    "DisplayLatitude": 47.614956,
    "DisplayLongitude": -122.329452,
    "ImageHeight": 249,
    "url": "https://images.wsdot.wa.gov/nw/005vc16612.jpg",
    "ImageWidth": 335,
    "IsActive": true,
    "OwnerURL": "",
    "Region": "NW",
    "SortOrder": 1000,
    "Title": "I-5 at MP 166.1: Pike Express Lanes Ramp"
  },
  {
    "id": 9535,
    "CameraLocation": "null|B|47.61764|-122.328475|166|I-5",
    "CameraOwner": "",
    "Description": "",
    "DisplayLatitude": 47.61764,
    "DisplayLongitude": -122.328475,
    "ImageHeight": 249,
    "url": "https://images.wsdot.wa.gov/nw/005vc16630.jpg",
    "ImageWidth": 335,
    "IsActive": true,
    "OwnerURL": "",
    "Region": "NW",
    "SortOrder": 1000,
    "Title": "I-5 at MP 166.3: Howell St"
  },
  {
    "id": 9366,
    "CameraLocation": "null|B|47.619673|-122.328209|166|I-5",
    "CameraOwner": "",
    "Description": "",
    "DisplayLatitude": 47.619673,
    "DisplayLongitude": -122.328209,
    "ImageHeight": 249,
    "url": "https://images.wsdot.wa.gov/nw/005vc16644.jpg",
    "ImageWidth": 335,
    "IsActive": true,
    "OwnerURL": "",
    "Region": "NW",
    "SortOrder": 1000,
    "Title": "I-5 at MP 166.4: John St Express Lanes"
  },
  {
    "id": 9365,
    "CameraLocation": "null|B|47.619816|-122.328206|166|I-5",
    "CameraOwner": "",
    "Description": "",
    "DisplayLatitude": 47.619816,
    "DisplayLongitude": -122.328206,
    "ImageHeight": 249,
    "url": "https://images.wsdot.wa.gov/nw/005vc16645.jpg",
    "ImageWidth": 335,
    "IsActive": true,
    "OwnerURL": "",
    "Region": "NW",
    "SortOrder": 1000,
    "Title": "I-5 at MP 166.4: Denny Way"
  },
  {
    "id": 9536,
    "CameraLocation": "null|B|47.619963|-122.328208|166|I-5",
    "CameraOwner": "",
    "Description": "",
    "DisplayLatitude": 47.619963,
    "DisplayLongitude": -122.328208,
    "ImageHeight": 249,
    "url": "https://images.wsdot.wa.gov/nw/005vc16646.jpg",
    "ImageWidth": 335,
    "IsActive": true,
    "OwnerURL": "",
    "Region": "NW",
    "SortOrder": 1000,
    "Title": "I-5 at MP 166.4: Stewart/Eastlake Ramp"
  },
  {
    "id": 9367,
    "CameraLocation": "null|B|47.624136|-122.328125|166|I-5",
    "CameraOwner": "",
    "Description": "",
    "DisplayLatitude": 47.624136,
    "DisplayLongitude": -122.328125,
    "ImageHeight": 249,
    "url": "https://images.wsdot.wa.gov/nw/005vc16675.jpg",
    "ImageWidth": 335,
    "IsActive": true,
    "OwnerURL": "",
    "Region": "NW",
    "SortOrder": 1000,
    "Title": "I-5 at MP 166.7: Mercer St Express Lanes"
  },
  {
    "id": 9537,
    "CameraLocation": "null|B|47.624705|-122.328134|166|I-5",
    "CameraOwner": "",
    "Description": "",
    "DisplayLatitude": 47.624705,
    "DisplayLongitude": -122.328134,
    "ImageHeight": 249,
    "url": "https://images.wsdot.wa.gov/nw/005vc16679.jpg",
    "ImageWidth": 335,
    "IsActive": true,
    "OwnerURL": "",
    "Region": "NW",
    "SortOrder": 1000,
    "Title": "I-5 at MP 166.7: Mercer St Ramps"
  },
  {
    "id": 9538,
    "CameraLocation": "null|B|47.625854|-122.32817|166|I-5",
    "CameraOwner": "",
    "Description": "",
    "DisplayLatitude": 47.625854,
    "DisplayLongitude": -122.32817,
    "ImageHeight": 249,
    "url": "https://images.wsdot.wa.gov/nw/005vc16687.jpg",
    "ImageWidth": 335,
    "IsActive": true,
    "OwnerURL": "",
    "Region": "NW",
    "SortOrder": 1000,
    "Title": "I-5 at MP 166.8: Mercer St NB Ramp"
  },
  {
    "id": 1030,
    "CameraLocation": "null|B|47.628|-122.3278|167|I-5",
    "CameraOwner": "",
    "Description": "",
    "DisplayLatitude": 47.628,
    "DisplayLongitude": -122.3278,
    "ImageHeight": 249,
    "url": "https://images.wsdot.wa.gov/nw/005vc16702.jpg",
    "ImageWidth": 335,
    "IsActive": true,
    "OwnerURL": "",
    "Region": "NW",
    "SortOrder": 1000,
    "Title": "I-5 at MP 167: Mercer St"
  },
  {
    "id": 9539,
    "CameraLocation": "null|B|47.628039|-122.328286|167|I-5",
    "CameraOwner": "",
    "Description": "",
    "DisplayLatitude": 47.628039,
    "DisplayLongitude": -122.328286,
    "ImageHeight": 249,
    "url": "https://images.wsdot.wa.gov/nw/005vc16703.jpg",
    "ImageWidth": 335,
    "IsActive": true,
    "OwnerURL": "",
    "Region": "NW",
    "SortOrder": 1000,
    "Title": "I-5 at MP 167: Lakeview Express Lanes"
  },
  {
    "id": 9540,
    "CameraLocation": "null|B|47.636019|-122.322751|167|I-5",
    "CameraOwner": "",
    "Description": "",
    "DisplayLatitude": 47.636019,
    "DisplayLongitude": -122.322751,
    "ImageHeight": 249,
    "url": "https://images.wsdot.wa.gov/nw/005vc16763.jpg",
    "ImageWidth": 335,
    "IsActive": true,
    "OwnerURL": "",
    "Region": "NW",
    "SortOrder": 1000,
    "Title": "I-5 at MP 167.6: Boylston Ave"
  },
  {
    "id": 1031,
    "CameraLocation": "null|B|47.6416|-122.3226|168|I-5",
    "CameraOwner": "",
    "Description": "",
    "DisplayLatitude": 47.6416,
    "DisplayLongitude": -122.3226,
    "ImageHeight": 249,
    "url": "https://images.wsdot.wa.gov/nw/005vc16802.jpg",
    "ImageWidth": 335,
    "IsActive": true,
    "OwnerURL": "",
    "Region": "NW",
    "SortOrder": 1000,
    "Title": "I-5 at MP 168: Roanoke St"
  },
  {
    "id": 9541,
    "CameraLocation": "null|B|47.641464|-122.322839|168|I-5",
    "CameraOwner": "",
    "Description": "",
    "DisplayLatitude": 47.641464,
    "DisplayLongitude": -122.322839,
    "ImageHeight": 249,
    "url": "https://images.wsdot.wa.gov/nw/005vc16803.jpg",
    "ImageWidth": 335,
    "IsActive": true,
    "OwnerURL": "",
    "Region": "NW",
    "SortOrder": 1000,
    "Title": "I-5 at MP 168: Roanoke St Express Lanes"
  },
  {
    "id": 9542,
    "CameraLocation": "null|B|47.649935|-122.322564|168|I-5",
    "CameraOwner": "",
    "Description": "",
    "DisplayLatitude": 47.649935,
    "DisplayLongitude": -122.322564,
    "ImageHeight": 249,
    "url": "https://images.wsdot.wa.gov/nw/005vc16859.jpg",
    "ImageWidth": 335,
    "IsActive": true,
    "OwnerURL": "",
    "Region": "NW",
    "SortOrder": 1000,
    "Title": "I-5 at MP 168.5: Eastlake Ave Express Lanes"
  },
  {
    "id": 9543,
    "CameraLocation": "null|B|47.653913|-122.322475|168|I-5",
    "CameraOwner": "",
    "Description": "",
    "DisplayLatitude": 47.653913,
    "DisplayLongitude": -122.322475,
    "ImageHeight": 249,
    "url": "https://images.wsdot.wa.gov/nw/005vc16886.jpg",
    "ImageWidth": 335,
    "IsActive": true,
    "OwnerURL": "",
    "Region": "NW",
    "SortOrder": 1000,
    "Title": "I-5 at MP 168.8: Ship Canal Express Lanes"
  },
  {
    "id": 9299,
    "CameraLocation": "null|B|47.654018|-122.32235|168|I-5",
    "CameraOwner": "",
    "Description": "",
    "DisplayLatitude": 47.654018,
    "DisplayLongitude": -122.32235,
    "ImageHeight": 249,
    "url": "https://images.wsdot.wa.gov/nw/005vc16887.jpg",
    "ImageWidth": 335,
    "IsActive": true,
    "OwnerURL": "",
    "Region": "NW",
    "SortOrder": 1000,
    "Title": "I-5 at MP 168.8: Ship Canal Bridge"
  },
  {
    "id": 9544,
    "CameraLocation": "null|B|47.656216|-122.322443|169|I-5",
    "CameraOwner": "",
    "Description": "",
    "DisplayLatitude": 47.656216,
    "DisplayLongitude": -122.322443,
    "ImageHeight": 249,
    "url": "https://images.wsdot.wa.gov/nw/005vc16902.jpg",
    "ImageWidth": 335,
    "IsActive": true,
    "OwnerURL": "",
    "Region": "NW",
    "SortOrder": 1000,
    "Title": "I-5 at MP 169: NE 40th St Express Lanes"
  },
  {
    "id": 9545,
    "CameraLocation": "null|B|47.657002|-122.322266|169|I-5",
    "CameraOwner": "",
    "Description": "",
    "DisplayLatitude": 47.657002,
    "DisplayLongitude": -122.322266,
    "ImageHeight": 249,
    "url": "https://images.wsdot.wa.gov/nw/005vc16908.jpg",
    "ImageWidth": 335,
    "IsActive": true,
    "OwnerURL": "",
    "Region": "NW",
    "SortOrder": 1000,
    "Title": "I-5 at MP 169: 7th Ave & 42nd"
  },
  {
    "id": 1406,
    "CameraLocation": "null|B|47.6585|-122.3221|169|I-5",
    "CameraOwner": "",
    "Description": "",
    "DisplayLatitude": 47.6585,
    "DisplayLongitude": -122.3221,
    "ImageHeight": 249,
    "url": "https://images.wsdot.wa.gov/nw/005vc16913.jpg",
    "ImageWidth": 335,
    "IsActive": true,
    "OwnerURL": "",
    "Region": "NW",
    "SortOrder": 1000,
    "Title": "I-5 at MP 169.1: NE 42nd St Ramp"
  },
  {
    "id": 1032,
    "CameraLocation": "null|B|47.661442|-122.321599|169|I-5",
    "CameraOwner": "",
    "Description": "",
    "DisplayLatitude": 47.661442,
    "DisplayLongitude": -122.321599,
    "ImageHeight": 249,
    "url": "https://images.wsdot.wa.gov/nw/005vc16939.jpg",
    "ImageWidth": 335,
    "IsActive": true,
    "OwnerURL": "",
    "Region": "NW",
    "SortOrder": 1000,
    "Title": "I-5 at MP 169.3: NE 45th St"
  },
  {
    "id": 9060,
    "CameraLocation": "null|B|47.665247|-122.321747|169|I-5",
    "CameraOwner": "",
    "Description": "",
    "DisplayLatitude": 47.665247,
    "DisplayLongitude": -122.321747,
    "ImageHeight": 249,
    "url": "https://images.wsdot.wa.gov/nw/005vc16965.jpg",
    "ImageWidth": 335,
    "IsActive": true,
    "OwnerURL": "",
    "Region": "NW",
    "SortOrder": 1000,
    "Title": "I-5 at MP 169.6: NE 50th St"
  },
  {
    "id": 9546,
    "CameraLocation": "null|B|47.672722|-122.321216|170|I-5",
    "CameraOwner": "",
    "Description": "",
    "DisplayLatitude": 47.672722,
    "DisplayLongitude": -122.321216,
    "ImageHeight": 249,
    "url": "https://images.wsdot.wa.gov/nw/005vc17018.jpg",
    "ImageWidth": 335,
    "IsActive": true,
    "OwnerURL": "",
    "Region": "NW",
    "SortOrder": 1000,
    "Title": "I-5 at MP 170.1: NE Ravenna Blvd"
  },
  {
    "id": 1033,
    "CameraLocation": "null|B|47.68299|-122.31942|170|I-5",
    "CameraOwner": "",
    "Description": "",
    "DisplayLatitude": 47.68299,
    "DisplayLongitude": -122.31942,
    "ImageHeight": 249,
    "url": "https://images.wsdot.wa.gov/nw/005vc17078.jpg",
    "ImageWidth": 335,
    "IsActive": true,
    "OwnerURL": "",
    "Region": "NW",
    "SortOrder": 1000,
    "Title": "I-5 at MP 170.7: Lake City Way"
  },
  {
    "id": 9401,
    "CameraLocation": "null|B|47.682181|-122.321053|170|I-5",
    "CameraOwner": "",
    "Description": "",
    "DisplayLatitude": 47.682181,
    "DisplayLongitude": -122.321053,
    "ImageHeight": 249,
    "url": "https://images.wsdot.wa.gov/nw/005vc17082.jpg",
    "ImageWidth": 335,
    "IsActive": true,
    "OwnerURL": "",
    "Region": "NW",
    "SortOrder": 1000,
    "Title": "I-5 at MP 170.8: Lake City Way Express Lanes"
  },
  {
    "id": 9400,
    "CameraLocation": "null|B|47.684518|-122.323106|171|I-5",
    "CameraOwner": "",
    "Description": "",
    "DisplayLatitude": 47.684518,
    "DisplayLongitude": -122.323106,
    "ImageHeight": 249,
    "url": "https://images.wsdot.wa.gov/nw/005vc17101.jpg",
    "ImageWidth": 335,
    "IsActive": true,
    "OwnerURL": "",
    "Region": "NW",
    "SortOrder": 1000,
    "Title": "I-5 at MP 171: NE 77th St"
  },
  {
    "id": 9547,
    "CameraLocation": "null|B|47.686794|-122.326273|171|I-5",
    "CameraOwner": "",
    "Description": "",
    "DisplayLatitude": 47.686794,
    "DisplayLongitude": -122.326273,
    "ImageHeight": 249,
    "url": "https://images.wsdot.wa.gov/nw/005vc17124.jpg",
    "ImageWidth": 335,
    "IsActive": true,
    "OwnerURL": "",
    "Region": "NW",
    "SortOrder": 1000,
    "Title": "I-5 at MP 171.2: NE 80th St Express Lanes"
  },
  {
    "id": 1034,
    "CameraLocation": "null|B|47.691656|-122.32988|171|I-5",
    "CameraOwner": "",
    "Description": "",
    "DisplayLatitude": 47.691656,
    "DisplayLongitude": -122.32988,
    "ImageHeight": 249,
    "url": "https://images.wsdot.wa.gov/nw/005vc17153.jpg",
    "ImageWidth": 335,
    "IsActive": true,
    "OwnerURL": "",
    "Region": "NW",
    "SortOrder": 1000,
    "Title": "I-5 at MP 171.5: NE 85th St"
  },
  {
    "id": 9548,
    "CameraLocation": "null|B|47.696185|-122.329045|171|I-5",
    "CameraOwner": "",
    "Description": "",
    "DisplayLatitude": 47.696185,
    "DisplayLongitude": -122.329045,
    "ImageHeight": 249,
    "url": "https://images.wsdot.wa.gov/nw/005vc17191.jpg",
    "ImageWidth": 335,
    "IsActive": true,
    "OwnerURL": "",
    "Region": "NW",
    "SortOrder": 1000,
    "Title": "I-5 at MP 171.9: N 92nd St"
  },
  {
    "id": 9549,
    "CameraLocation": "null|B|47.702926|-122.329854|172|I-5",
    "CameraOwner": "",
    "Description": "",
    "DisplayLatitude": 47.702926,
    "DisplayLongitude": -122.329854,
    "ImageHeight": 249,
    "url": "https://images.wsdot.wa.gov/nw/005vc17240.jpg",
    "ImageWidth": 335,
    "IsActive": true,
    "OwnerURL": "",
    "Region": "NW",
    "SortOrder": 1000,
    "Title": "I-5 at MP 172.4: NE 103rd Express Lanes Ramp"
  },
  {
    "id": 9550,
    "CameraLocation": "null|B|47.703776|-122.329467|172|I-5",
    "CameraOwner": "",
    "Description": "",
    "DisplayLatitude": 47.703776,
    "DisplayLongitude": -122.329467,
    "ImageHeight": 249,
    "url": "https://images.wsdot.wa.gov/nw/005vc17245.jpg",
    "ImageWidth": 335,
    "IsActive": true,
    "OwnerURL": "",
    "Region": "NW",
    "SortOrder": 1000,
    "Title": "I-5 at MP 172.4: 1st Ave & 103rd"
  },
  {
    "id": 1409,
    "CameraLocation": "null|B|47.7068|-122.3297|172|I-5",
    "CameraOwner": "",
    "Description": "",
    "DisplayLatitude": 47.7068,
    "DisplayLongitude": -122.3297,
    "ImageHeight": 249,
    "url": "https://images.wsdot.wa.gov/nw/005vc17263.jpg",
    "ImageWidth": 335,
    "IsActive": true,
    "OwnerURL": "",
    "Region": "NW",
    "SortOrder": 1000,
    "Title": "I-5 at MP 172.6: NE 107th St"
  },
  {
    "id": 1035,
    "CameraLocation": "null|B|47.708662|-122.329778|172|I-5",
    "CameraOwner": "",
    "Description": "",
    "DisplayLatitude": 47.708662,
    "DisplayLongitude": -122.329778,
    "ImageHeight": 249,
    "url": "https://images.wsdot.wa.gov/nw/005vc17277.jpg",
    "ImageWidth": 335,
    "IsActive": true,
    "OwnerURL": "",
    "Region": "NW",
    "SortOrder": 1000,
    "Title": "I-5 at MP 172.7: N Northgate Way"
  },
  {
    "id": 9551,
    "CameraLocation": "null|B|47.713621|-122.327144|173|I-5",
    "CameraOwner": "",
    "Description": "",
    "DisplayLatitude": 47.713621,
    "DisplayLongitude": -122.327144,
    "ImageHeight": 249,
    "url": "https://images.wsdot.wa.gov/nw/005vc17315.jpg",
    "ImageWidth": 335,
    "IsActive": true,
    "OwnerURL": "",
    "Region": "NW",
    "SortOrder": 1000,
    "Title": "I-5 at MP 173.1: NE 117th St"
  },
  {
    "id": 9552,
    "CameraLocation": "null|B|47.71665|-122.324898|173|I-5",
    "CameraOwner": "",
    "Description": "",
    "DisplayLatitude": 47.71665,
    "DisplayLongitude": -122.324898,
    "ImageHeight": 249,
    "url": "https://images.wsdot.wa.gov/nw/005vc17338.jpg",
    "ImageWidth": 335,
    "IsActive": true,
    "OwnerURL": "",
    "Region": "NW",
    "SortOrder": 1000,
    "Title": "I-5 at MP 173.3: NE 120th St"
  },
  {
    "id": 1411,
    "CameraLocation": "null|B|47.723235|-122.323784|173|I-5",
    "CameraOwner": "",
    "Description": "",
    "DisplayLatitude": 47.723235,
    "DisplayLongitude": -122.323784,
    "ImageHeight": 249,
    "url": "https://images.wsdot.wa.gov/nw/005vc17386.jpg",
    "ImageWidth": 335,
    "IsActive": true,
    "OwnerURL": "",
    "Region": "NW",
    "SortOrder": 1000,
    "Title": "I-5 at MP 173.8: NE 130th St"
  },
  {
    "id": 1036,
    "CameraLocation": "null|B|47.73425|-122.32459|174|I-5",
    "CameraOwner": "",
    "Description": "",
    "DisplayLatitude": 47.73425,
    "DisplayLongitude": -122.32459,
    "ImageHeight": 249,
    "url": "https://images.wsdot.wa.gov/nw/005vc17461.jpg",
    "ImageWidth": 335,
    "IsActive": true,
    "OwnerURL": "",
    "Region": "NW",
    "SortOrder": 1000,
    "Title": "I-5 at MP 174.6: NE 145th St"
  },
  {
    "id": 9553,
    "CameraLocation": "null|B|47.746899|-122.329089|175|I-5",
    "CameraOwner": "",
    "Description": "",
    "DisplayLatitude": 47.746899,
    "DisplayLongitude": -122.329089,
    "ImageHeight": 249,
    "url": "https://images.wsdot.wa.gov/nw/005vc17552.jpg",
    "ImageWidth": 335,
    "IsActive": true,
    "OwnerURL": "",
    "Region": "NW",
    "SortOrder": 1000,
    "Title": "I-5 at MP 175.5: N Metro Base"
  },
  {
    "id": 1037,
    "CameraLocation": "null|B|47.754417|-122.329977|176|I-5",
    "CameraOwner": "",
    "Description": "",
    "DisplayLatitude": 47.754417,
    "DisplayLongitude": -122.329977,
    "ImageHeight": 209,
    "url": "https://images.wsdot.wa.gov/nw/005vc17603.jpg",
    "ImageWidth": 335,
    "IsActive": true,
    "OwnerURL": "",
    "Region": "NW",
    "SortOrder": 1000,
    "Title": "I-5 at MP 176: NE 175th St"
  },
  {
    "id": 9554,
    "CameraLocation": "null|B|47.757568|-122.328154|176|I-5",
    "CameraOwner": "",
    "Description": "",
    "DisplayLatitude": 47.757568,
    "DisplayLongitude": -122.328154,
    "ImageHeight": 249,
    "url": "https://images.wsdot.wa.gov/nw/005vc17627.jpg",
    "ImageWidth": 335,
    "IsActive": true,
    "OwnerURL": "",
    "Region": "NW",
    "SortOrder": 1000,
    "Title": "I-5 at MP 176.2: NE 175th St, NB"
  }
]